{
"type": "FeatureCollection",
"name": "hinanjo_kagoshimashi_point",
"crs": { "type": "name", "properties": { "name": "urn:ogc:def:crs:OGC:1.3:CRS84" } },
"features": [
{ "type": "Feature", "properties": { "UNID": 1, "名称": "泉公園", "所在地": "泉町５番８", "経度": 130.558733, "緯度": 31.59398603 }, "geometry": { "type": "Point", "coordinates": [ 130.558733, 31.59398603 ] } },
{ "type": "Feature", "properties": { "UNID": 2, "名称": "共研公園", "所在地": "中央町１４番５", "経度": 130.5459362, "緯度": 31.58292171 }, "geometry": { "type": "Point", "coordinates": [ 130.5459362, 31.58292171 ] } },
{ "type": "Feature", "properties": { "UNID": 3, "名称": "清滝公園", "所在地": "西千石町９番１", "経度": 130.5489934, "緯度": 31.58869949 }, "geometry": { "type": "Point", "coordinates": [ 130.5489934, 31.58869949 ] } },
{ "type": "Feature", "properties": { "UNID": 4, "名称": "甲突川右岸緑地", "所在地": "上之園町２番１外", "経度": 130.5487377, "緯度": 31.58372296 }, "geometry": { "type": "Point", "coordinates": [ 130.5487377, 31.58372296 ] } },
{ "type": "Feature", "properties": { "UNID": 5, "名称": "甲突川左岸緑地", "所在地": "平之町３５番２外", "経度": 130.5588195, "緯度": 31.57942363 }, "geometry": { "type": "Point", "coordinates": [ 130.5588195, 31.57942363 ] } },
{ "type": "Feature", "properties": { "UNID": 6, "名称": "ザビエル公園", "所在地": "東千石町４番１", "経度": 130.5512421, "緯度": 31.59118556 }, "geometry": { "type": "Point", "coordinates": [ 130.5512421, 31.59118556 ] } },
{ "type": "Feature", "properties": { "UNID": 7, "名称": "塩釜公園", "所在地": "新屋敷町３２番４", "経度": 130.5590054, "緯度": 31.58427608 }, "geometry": { "type": "Point", "coordinates": [ 130.5590054, 31.58427608 ] } },
{ "type": "Feature", "properties": { "UNID": 8, "名称": "城南公園", "所在地": "城南町５番　", "経度": 130.5619892, "緯度": 31.57901095 }, "geometry": { "type": "Point", "coordinates": [ 130.5619892, 31.57901095 ] } },
{ "type": "Feature", "properties": { "UNID": 9, "名称": "新屋敷公園", "所在地": "新屋敷町１３番１", "経度": 130.5555818, "緯度": 31.58245394 }, "geometry": { "type": "Point", "coordinates": [ 130.5555818, 31.58245394 ] } },
{ "type": "Feature", "properties": { "UNID": 10, "名称": "天文館公園", "所在地": "千日町９番３０", "経度": 130.5560956, "緯度": 31.58811435 }, "geometry": { "type": "Point", "coordinates": [ 130.5560956, 31.58811435 ] } },
{ "type": "Feature", "properties": { "UNID": 11, "名称": "平田公園", "所在地": "平之町６番１", "経度": 130.5462267, "緯度": 31.591538 }, "geometry": { "type": "Point", "coordinates": [ 130.5462267, 31.591538 ] } },
{ "type": "Feature", "properties": { "UNID": 12, "名称": "旭ケ丘ニュータウン第１公園", "所在地": "東坂元４丁目６２番", "経度": 130.5652451, "緯度": 31.62408464 }, "geometry": { "type": "Point", "coordinates": [ 130.5652451, 31.62408464 ] } },
{ "type": "Feature", "properties": { "UNID": 13, "名称": "上本町公園", "所在地": "上本町１番１", "経度": 130.5591424, "緯度": 31.60174049 }, "geometry": { "type": "Point", "coordinates": [ 130.559142400000013, 31.60174049 ] } },
{ "type": "Feature", "properties": { "UNID": 14, "名称": "祗園之洲公園", "所在地": "清水町１０番２外", "経度": 130.5698547, "緯度": 31.6050195 }, "geometry": { "type": "Point", "coordinates": [ 130.5698547, 31.6050195 ] } },
{ "type": "Feature", "properties": { "UNID": 15, "名称": "祗園之洲緑地", "所在地": "祇園之洲町６１番の一部", "経度": 130.5739654, "緯度": 31.60568554 }, "geometry": { "type": "Point", "coordinates": [ 130.5739654, 31.60568554 ] } },
{ "type": "Feature", "properties": { "UNID": 16, "名称": "キリンさん公園", "所在地": "東坂元１丁目１４番", "経度": 130.5601675, "緯度": 31.61837425 }, "geometry": { "type": "Point", "coordinates": [ 130.5601675, 31.61837425 ] } },
{ "type": "Feature", "properties": { "UNID": 17, "名称": "坂元公園", "所在地": "東坂元２丁目４０番", "経度": 130.5553705, "緯度": 31.62235695 }, "geometry": { "type": "Point", "coordinates": [ 130.5553705, 31.62235695 ] } },
{ "type": "Feature", "properties": { "UNID": 18, "名称": "ゾウさん公園", "所在地": "東坂元１丁目１２番", "経度": 130.5602756, "緯度": 31.61567551 }, "geometry": { "type": "Point", "coordinates": [ 130.560275600000011, 31.61567551 ] } },
{ "type": "Feature", "properties": { "UNID": 19, "名称": "多賀山公園", "所在地": "清水町３２", "経度": 130.5701706, "緯度": 31.6068693 }, "geometry": { "type": "Point", "coordinates": [ 130.570170600000012, 31.6068693 ] } },
{ "type": "Feature", "properties": { "UNID": 20, "名称": "竹の子公園", "所在地": "東坂元３丁目３２番", "経度": 130.5617163, "緯度": 31.62024805 }, "geometry": { "type": "Point", "coordinates": [ 130.5617163, 31.62024805 ] } },
{ "type": "Feature", "properties": { "UNID": 21, "名称": "玉里第五公園", "所在地": "玉里団地３丁目２７番", "経度": 130.5465979, "緯度": 31.62041212 }, "geometry": { "type": "Point", "coordinates": [ 130.5465979, 31.62041212 ] } },
{ "type": "Feature", "properties": { "UNID": 22, "名称": "玉里第六公園", "所在地": "玉里団地１丁目３番", "経度": 130.5453202, "緯度": 31.61828927 }, "geometry": { "type": "Point", "coordinates": [ 130.5453202, 31.61828927 ] } },
{ "type": "Feature", "properties": { "UNID": 23, "名称": "玉里中央公園", "所在地": "玉里団地１丁目７９番", "経度": 130.5439602, "緯度": 31.62046703 }, "geometry": { "type": "Point", "coordinates": [ 130.543960199999987, 31.62046703 ] } },
{ "type": "Feature", "properties": { "UNID": 24, "名称": "中央公園", "所在地": "山下町４番１外", "経度": 130.5538625, "緯度": 31.59406654 }, "geometry": { "type": "Point", "coordinates": [ 130.5538625, 31.59406654 ] } },
{ "type": "Feature", "properties": { "UNID": 25, "名称": "辻ヶ丘公園", "所在地": "東坂元２丁目４８番", "経度": 130.5557895, "緯度": 31.62426182 }, "geometry": { "type": "Point", "coordinates": [ 130.5557895, 31.62426182 ] } },
{ "type": "Feature", "properties": { "UNID": 26, "名称": "照国公園", "所在地": "城山町１番２", "経度": 130.5522547, "緯度": 31.59418741 }, "geometry": { "type": "Point", "coordinates": [ 130.5522547, 31.59418741 ] } },
{ "type": "Feature", "properties": { "UNID": 27, "名称": "夏陰公園", "所在地": "長田町３６番", "経度": 130.5471724, "緯度": 31.60188177 }, "geometry": { "type": "Point", "coordinates": [ 130.5471724, 31.60188177 ] } },
{ "type": "Feature", "properties": { "UNID": 28, "名称": "南洲公園", "所在地": "上竜尾町２２番１外", "経度": 130.5589381, "緯度": 31.60590623 }, "geometry": { "type": "Point", "coordinates": [ 130.5589381, 31.60590623 ] } },
{ "type": "Feature", "properties": { "UNID": 29, "名称": "催馬楽公園", "所在地": "坂元町５２番", "経度": 130.5568278, "緯度": 31.61554653 }, "geometry": { "type": "Point", "coordinates": [ 130.5568278, 31.61554653 ] } },
{ "type": "Feature", "properties": { "UNID": 30, "名称": "リスさん公園", "所在地": "東坂元１丁目４番", "経度": 130.5615635, "緯度": 31.61544646 }, "geometry": { "type": "Point", "coordinates": [ 130.5615635, 31.61544646 ] } },
{ "type": "Feature", "properties": { "UNID": 31, "名称": "若葉第三公園", "所在地": "若葉町３６番", "経度": 130.5457698, "緯度": 31.62601068 }, "geometry": { "type": "Point", "coordinates": [ 130.545769799999988, 31.62601068 ] } },
{ "type": "Feature", "properties": { "UNID": 32, "名称": "若宮公園", "所在地": "池之上町８番２３", "経度": 130.5648092, "緯度": 31.60713982 }, "geometry": { "type": "Point", "coordinates": [ 130.564809200000013, 31.60713982 ] } },
{ "type": "Feature", "properties": { "UNID": 33, "名称": "荒田公園", "所在地": "荒田１丁目４９番１", "経度": 130.5484168, "緯度": 31.5746881 }, "geometry": { "type": "Point", "coordinates": [ 130.548416800000012, 31.5746881 ] } },
{ "type": "Feature", "properties": { "UNID": 34, "名称": "一本桜公園", "所在地": "紫原６丁目５２番", "経度": 130.5333204, "緯度": 31.56362742 }, "geometry": { "type": "Point", "coordinates": [ 130.5333204, 31.56362742 ] } },
{ "type": "Feature", "properties": { "UNID": 35, "名称": "牛掛公園", "所在地": "南郡元町２１番１５", "経度": 130.5436789, "緯度": 31.55340346 }, "geometry": { "type": "Point", "coordinates": [ 130.5436789, 31.55340346 ] } },
{ "type": "Feature", "properties": { "UNID": 36, "名称": "宇宿台第一公園", "所在地": "桜ヶ丘８丁目３２番", "経度": 130.5260478, "緯度": 31.54555284 }, "geometry": { "type": "Point", "coordinates": [ 130.526047799999986, 31.54555284 ] } },
{ "type": "Feature", "properties": { "UNID": 37, "名称": "宇宿台第二公園", "所在地": "桜ヶ丘８丁目９番", "経度": 130.5287677, "緯度": 31.54293417 }, "geometry": { "type": "Point", "coordinates": [ 130.5287677, 31.54293417 ] } },
{ "type": "Feature", "properties": { "UNID": 38, "名称": "梶原公園", "所在地": "宇宿７丁目４", "経度": 130.5323839, "緯度": 31.55059123 }, "geometry": { "type": "Point", "coordinates": [ 130.532383900000013, 31.55059123 ] } },
{ "type": "Feature", "properties": { "UNID": 39, "名称": "梶原迫公園", "所在地": "西紫原町７番", "経度": 130.529006, "緯度": 31.55433462 }, "geometry": { "type": "Point", "coordinates": [ 130.529006, 31.55433462 ] } },
{ "type": "Feature", "properties": { "UNID": 40, "名称": "亀ケ原公園", "所在地": "桜ヶ丘８丁目１６番", "経度": 130.5286166, "緯度": 31.54408904 }, "geometry": { "type": "Point", "coordinates": [ 130.5286166, 31.54408904 ] } },
{ "type": "Feature", "properties": { "UNID": 41, "名称": "鴨池公園", "所在地": "鴨池２丁目３１番，３２番外", "経度": 130.5598376, "緯度": 31.56475359 }, "geometry": { "type": "Point", "coordinates": [ 130.5598376, 31.56475359 ] } },
{ "type": "Feature", "properties": { "UNID": 42, "名称": "鴨池児童公園", "所在地": "鴨池２丁目２５番", "経度": 130.5504077, "緯度": 31.56359274 }, "geometry": { "type": "Point", "coordinates": [ 130.5504077, 31.56359274 ] } },
{ "type": "Feature", "properties": { "UNID": 43, "名称": "騎射場公園", "所在地": "荒田２丁目６９番", "経度": 130.5503216, "緯度": 31.56990604 }, "geometry": { "type": "Point", "coordinates": [ 130.5503216, 31.56990604 ] } },
{ "type": "Feature", "properties": { "UNID": 44, "名称": "甲南公園", "所在地": "高麗町２３番", "経度": 130.5507496, "緯度": 31.58023664 }, "geometry": { "type": "Point", "coordinates": [ 130.550749599999989, 31.58023664 ] } },
{ "type": "Feature", "properties": { "UNID": 45, "名称": "桜ヶ丘七丁目公園", "所在地": "桜ヶ丘７丁目１０番", "経度": 130.5228994, "緯度": 31.55384255 }, "geometry": { "type": "Point", "coordinates": [ 130.5228994, 31.55384255 ] } },
{ "type": "Feature", "properties": { "UNID": 46, "名称": "しいのみ公園", "所在地": "紫原３丁目４８番", "経度": 130.5349165, "緯度": 31.55317497 }, "geometry": { "type": "Point", "coordinates": [ 130.5349165, 31.55317497 ] } },
{ "type": "Feature", "properties": { "UNID": 47, "名称": "田平公園", "所在地": "宇宿５丁目２６", "経度": 130.5322421, "緯度": 31.5466378 }, "geometry": { "type": "Point", "coordinates": [ 130.5322421, 31.5466378 ] } },
{ "type": "Feature", "properties": { "UNID": 48, "名称": "立山公園", "所在地": "唐湊３丁目３４番", "経度": 130.5320365, "緯度": 31.56626404 }, "geometry": { "type": "Point", "coordinates": [ 130.5320365, 31.56626404 ] } },
{ "type": "Feature", "properties": { "UNID": 49, "名称": "つくし公園", "所在地": "紫原６丁目３９番", "経度": 130.5279317, "緯度": 31.56442818 }, "geometry": { "type": "Point", "coordinates": [ 130.527931700000011, 31.56442818 ] } },
{ "type": "Feature", "properties": { "UNID": 50, "名称": "鶴ヶ崎公園", "所在地": "三和町４６番", "経度": 130.5551829, "緯度": 31.55113534 }, "geometry": { "type": "Point", "coordinates": [ 130.5551829, 31.55113534 ] } },
{ "type": "Feature", "properties": { "UNID": 51, "名称": "天保山公園", "所在地": "天保山町２４番", "経度": 130.5648489, "緯度": 31.57273097 }, "geometry": { "type": "Point", "coordinates": [ 130.564848899999987, 31.57273097 ] } },
{ "type": "Feature", "properties": { "UNID": 52, "名称": "中村公園", "所在地": "鴨池１丁目２３番", "経度": 130.547631, "緯度": 31.56788594 }, "geometry": { "type": "Point", "coordinates": [ 130.547631, 31.56788594 ] } },
{ "type": "Feature", "properties": { "UNID": 53, "名称": "なかよし公園", "所在地": "宇宿町２１４１番外", "経度": 130.5277132, "緯度": 31.55210995 }, "geometry": { "type": "Point", "coordinates": [ 130.5277132, 31.55210995 ] } },
{ "type": "Feature", "properties": { "UNID": 54, "名称": "二軒茶屋公園", "所在地": "宇宿１丁目２４番１", "経度": 130.5417402, "緯度": 31.54869584 }, "geometry": { "type": "Point", "coordinates": [ 130.5417402, 31.54869584 ] } },
{ "type": "Feature", "properties": { "UNID": 55, "名称": "西紫原公園", "所在地": "西紫原町１９番１", "経度": 130.5288769, "緯度": 31.55674033 }, "geometry": { "type": "Point", "coordinates": [ 130.5288769, 31.55674033 ] } },
{ "type": "Feature", "properties": { "UNID": 56, "名称": "西紫原台公園", "所在地": "紫原５丁目２３１０番２", "経度": 130.5253348, "緯度": 31.56039667 }, "geometry": { "type": "Point", "coordinates": [ 130.5253348, 31.56039667 ] } },
{ "type": "Feature", "properties": { "UNID": 57, "名称": "ひばり公園", "所在地": "紫原２丁目２０番", "経度": 130.5352323, "緯度": 31.56034594 }, "geometry": { "type": "Point", "coordinates": [ 130.5352323, 31.56034594 ] } },
{ "type": "Feature", "properties": { "UNID": 58, "名称": "古田ケ浜公園", "所在地": "下荒田２丁目４５番", "経度": 130.5580865, "緯度": 31.57345551 }, "geometry": { "type": "Point", "coordinates": [ 130.5580865, 31.57345551 ] } },
{ "type": "Feature", "properties": { "UNID": 59, "名称": "平和公園", "所在地": "紫原２丁目１番", "経度": 130.5361752, "緯度": 31.56219082 }, "geometry": { "type": "Point", "coordinates": [ 130.5361752, 31.56219082 ] } },
{ "type": "Feature", "properties": { "UNID": 60, "名称": "真砂公園", "所在地": "真砂町５５番", "経度": 130.5532397, "緯度": 31.55914149 }, "geometry": { "type": "Point", "coordinates": [ 130.5532397, 31.55914149 ] } },
{ "type": "Feature", "properties": { "UNID": 61, "名称": "真砂本町公園", "所在地": "真砂本町６４番", "経度": 130.5550496, "緯度": 31.5571498 }, "geometry": { "type": "Point", "coordinates": [ 130.5550496, 31.5571498 ] } },
{ "type": "Feature", "properties": { "UNID": 62, "名称": "南公園", "所在地": "宇宿３丁目４２番１", "経度": 130.53703, "緯度": 31.54093259 }, "geometry": { "type": "Point", "coordinates": [ 130.53703, 31.54093259 ] } },
{ "type": "Feature", "properties": { "UNID": 63, "名称": "むらさき公園", "所在地": "紫原４丁目１０番", "経度": 130.5350455, "緯度": 31.55818923 }, "geometry": { "type": "Point", "coordinates": [ 130.5350455, 31.55818923 ] } },
{ "type": "Feature", "properties": { "UNID": 64, "名称": "紫原北公園", "所在地": "紫原７丁目１６番", "経度": 130.5245938, "緯度": 31.5668897 }, "geometry": { "type": "Point", "coordinates": [ 130.5245938, 31.5668897 ] } },
{ "type": "Feature", "properties": { "UNID": 65, "名称": "紫原中央公園", "所在地": "紫原４丁目３１番", "経度": 130.5309917, "緯度": 31.55950399 }, "geometry": { "type": "Point", "coordinates": [ 130.530991699999987, 31.55950399 ] } },
{ "type": "Feature", "properties": { "UNID": 66, "名称": "紫原西公園", "所在地": "紫原５丁目４３番", "経度": 130.5275078, "緯度": 31.56090266 }, "geometry": { "type": "Point", "coordinates": [ 130.5275078, 31.56090266 ] } },
{ "type": "Feature", "properties": { "UNID": 67, "名称": "紫原南公園", "所在地": "紫原３丁目２４番", "経度": 130.5373074, "緯度": 31.553424 }, "geometry": { "type": "Point", "coordinates": [ 130.5373074, 31.553424 ] } },
{ "type": "Feature", "properties": { "UNID": 68, "名称": "八洲ハイツ第三公園", "所在地": "宇宿町１７２６番１５９", "経度": 130.5168786, "緯度": 31.55626127 }, "geometry": { "type": "Point", "coordinates": [ 130.516878600000013, 31.55626127 ] } },
{ "type": "Feature", "properties": { "UNID": 69, "名称": "八幡公園", "所在地": "下荒田３丁目３１番", "経度": 130.5540911, "緯度": 31.56966055 }, "geometry": { "type": "Point", "coordinates": [ 130.5540911, 31.56966055 ] } },
{ "type": "Feature", "properties": { "UNID": 70, "名称": "ルンビニー公園", "所在地": "荒田２丁目１５番", "経度": 130.5510674, "緯度": 31.57207187 }, "geometry": { "type": "Point", "coordinates": [ 130.5510674, 31.57207187 ] } },
{ "type": "Feature", "properties": { "UNID": 71, "名称": "脇田公園", "所在地": "宇宿３丁目３１番１", "経度": 130.5370949, "緯度": 31.54381631 }, "geometry": { "type": "Point", "coordinates": [ 130.5370949, 31.54381631 ] } },
{ "type": "Feature", "properties": { "UNID": 72, "名称": "脇田中央公園", "所在地": "宇宿１丁目５４番１", "経度": 130.5403156, "緯度": 31.54451334 }, "geometry": { "type": "Point", "coordinates": [ 130.540315600000014, 31.54451334 ] } },
{ "type": "Feature", "properties": { "UNID": 73, "名称": "あさひ坂公園", "所在地": "永吉２丁目５番", "経度": 130.5342759, "緯度": 31.60455303 }, "geometry": { "type": "Point", "coordinates": [ 130.534275900000011, 31.60455303 ] } },
{ "type": "Feature", "properties": { "UNID": 74, "名称": "永吉公園", "所在地": "永吉３丁目１２番", "経度": 130.530178, "緯度": 31.60627994 }, "geometry": { "type": "Point", "coordinates": [ 130.530178, 31.60627994 ] } },
{ "type": "Feature", "properties": { "UNID": 75, "名称": "永吉中央公園", "所在地": "永吉１丁目３０番", "経度": 130.5362323, "緯度": 31.60079004 }, "geometry": { "type": "Point", "coordinates": [ 130.5362323, 31.60079004 ] } },
{ "type": "Feature", "properties": { "UNID": 76, "名称": "えのきざこ公園", "所在地": "明和２丁目２０番", "経度": 130.5165504, "緯度": 31.59739109 }, "geometry": { "type": "Point", "coordinates": [ 130.5165504, 31.59739109 ] } },
{ "type": "Feature", "properties": { "UNID": 77, "名称": "草牟田公園", "所在地": "草牟田１丁目２１番", "経度": 130.5415877, "緯度": 31.60265239 }, "geometry": { "type": "Point", "coordinates": [ 130.5415877, 31.60265239 ] } },
{ "type": "Feature", "properties": { "UNID": 78, "名称": "しらゆきこば公園", "所在地": "明和３丁目１１番", "経度": 130.5191759, "緯度": 31.60444874 }, "geometry": { "type": "Point", "coordinates": [ 130.5191759, 31.60444874 ] } },
{ "type": "Feature", "properties": { "UNID": 79, "名称": "城西公園", "所在地": "薬師１丁目２２番", "経度": 130.5390882, "緯度": 31.59316321 }, "geometry": { "type": "Point", "coordinates": [ 130.5390882, 31.59316321 ] } },
{ "type": "Feature", "properties": { "UNID": 80, "名称": "城之上公園", "所在地": "明和３丁目２６番", "経度": 130.5217015, "緯度": 31.60681865 }, "geometry": { "type": "Point", "coordinates": [ 130.5217015, 31.60681865 ] } },
{ "type": "Feature", "properties": { "UNID": 81, "名称": "新上公園", "所在地": "薬師１丁目８番", "経度": 130.5403405, "緯度": 31.5909673 }, "geometry": { "type": "Point", "coordinates": [ 130.540340500000013, 31.5909673 ] } },
{ "type": "Feature", "properties": { "UNID": 82, "名称": "陣ヶ丘公園", "所在地": "明和４丁目１４番", "経度": 130.5249744, "緯度": 31.6032218 }, "geometry": { "type": "Point", "coordinates": [ 130.5249744, 31.6032218 ] } },
{ "type": "Feature", "properties": { "UNID": 83, "名称": "玉江公園", "所在地": "永吉２丁目２６番", "経度": 130.5348196, "緯度": 31.60777105 }, "geometry": { "type": "Point", "coordinates": [ 130.5348196, 31.60777105 ] } },
{ "type": "Feature", "properties": { "UNID": 84, "名称": "玉里公園", "所在地": "玉里町２７番", "経度": 130.5385569, "緯度": 31.61262619 }, "geometry": { "type": "Point", "coordinates": [ 130.5385569, 31.61262619 ] } },
{ "type": "Feature", "properties": { "UNID": 85, "名称": "だらお公園", "所在地": "明和２丁目３０番", "経度": 130.5173361, "緯度": 31.60240893 }, "geometry": { "type": "Point", "coordinates": [ 130.5173361, 31.60240893 ] } },
{ "type": "Feature", "properties": { "UNID": 86, "名称": "常盤公園", "所在地": "常盤２丁目６番６", "経度": 130.5342167, "緯度": 31.58879967 }, "geometry": { "type": "Point", "coordinates": [ 130.5342167, 31.58879967 ] } },
{ "type": "Feature", "properties": { "UNID": 87, "名称": "中平公園", "所在地": "明和４丁目４番", "経度": 130.5285332, "緯度": 31.60389884 }, "geometry": { "type": "Point", "coordinates": [ 130.5285332, 31.60389884 ] } },
{ "type": "Feature", "properties": { "UNID": 88, "名称": "西田公園", "所在地": "西田２丁目１４番", "経度": 130.5405451, "緯度": 31.58749139 }, "geometry": { "type": "Point", "coordinates": [ 130.5405451, 31.58749139 ] } },
{ "type": "Feature", "properties": { "UNID": 89, "名称": "望岳公園", "所在地": "明和１丁目５６番", "経度": 130.5293874, "緯度": 31.6017009 }, "geometry": { "type": "Point", "coordinates": [ 130.5293874, 31.6017009 ] } },
{ "type": "Feature", "properties": { "UNID": 90, "名称": "花岡公園", "所在地": "永吉１丁目１２番", "経度": 130.5335735, "緯度": 31.59978297 }, "geometry": { "type": "Point", "coordinates": [ 130.533573499999989, 31.59978297 ] } },
{ "type": "Feature", "properties": { "UNID": 91, "名称": "原良第一公園", "所在地": "原良１丁目４番", "経度": 130.5380825, "緯度": 31.59834318 }, "geometry": { "type": "Point", "coordinates": [ 130.5380825, 31.59834318 ] } },
{ "type": "Feature", "properties": { "UNID": 92, "名称": "原良第三公園", "所在地": "原良３丁目８番", "経度": 130.5328409, "緯度": 31.59612789 }, "geometry": { "type": "Point", "coordinates": [ 130.5328409, 31.59612789 ] } },
{ "type": "Feature", "properties": { "UNID": 93, "名称": "丸岡公園", "所在地": "明和１丁目３８番", "経度": 130.5246334, "緯度": 31.60180877 }, "geometry": { "type": "Point", "coordinates": [ 130.5246334, 31.60180877 ] } },
{ "type": "Feature", "properties": { "UNID": 94, "名称": "明和中央公園", "所在地": "明和２丁目４１番", "経度": 130.5198228, "緯度": 31.60162486 }, "geometry": { "type": "Point", "coordinates": [ 130.519822799999986, 31.60162486 ] } },
{ "type": "Feature", "properties": { "UNID": 95, "名称": "弥五郎平公園", "所在地": "明和１丁目９番", "経度": 130.5272194, "緯度": 31.5998888 }, "geometry": { "type": "Point", "coordinates": [ 130.5272194, 31.5998888 ] } },
{ "type": "Feature", "properties": { "UNID": 96, "名称": "笑岳寺公園", "所在地": "西田３丁目３４番", "経度": 130.5353561, "緯度": 31.58595368 }, "geometry": { "type": "Point", "coordinates": [ 130.5353561, 31.58595368 ] } },
{ "type": "Feature", "properties": { "UNID": 97, "名称": "大峯公園", "所在地": "西別府町３１１６番７５", "経度": 130.502932, "緯度": 31.59180333 }, "geometry": { "type": "Point", "coordinates": [ 130.502932, 31.59180333 ] } },
{ "type": "Feature", "properties": { "UNID": 98, "名称": "大峯第一公園", "所在地": "西別府町２７９４番２５０付近", "経度": 130.4958201, "緯度": 31.59362569 }, "geometry": { "type": "Point", "coordinates": [ 130.4958201, 31.59362569 ] } },
{ "type": "Feature", "properties": { "UNID": 99, "名称": "大峯第一緑地", "所在地": "西別府町２７９４番５０付近", "経度": 130.4983315, "緯度": 31.59289977 }, "geometry": { "type": "Point", "coordinates": [ 130.4983315, 31.59289977 ] } },
{ "type": "Feature", "properties": { "UNID": 100, "名称": "西郷公園", "所在地": "武２丁目２８番", "経度": 130.5368877, "緯度": 31.58395534 }, "geometry": { "type": "Point", "coordinates": [ 130.5368877, 31.58395534 ] } },
{ "type": "Feature", "properties": { "UNID": 101, "名称": "白金台公園", "所在地": "田上５丁目５６番", "経度": 130.516581, "緯度": 31.57578883 }, "geometry": { "type": "Point", "coordinates": [ 130.516581, 31.57578883 ] } },
{ "type": "Feature", "properties": { "UNID": 102, "名称": "田上公園", "所在地": "田上１丁目２５番　", "経度": 130.5294166, "緯度": 31.57686741 }, "geometry": { "type": "Point", "coordinates": [ 130.5294166, 31.57686741 ] } },
{ "type": "Feature", "properties": { "UNID": 103, "名称": "田上台公園", "所在地": "田上台２丁目４０番", "経度": 130.5221329, "緯度": 31.57073312 }, "geometry": { "type": "Point", "coordinates": [ 130.5221329, 31.57073312 ] } },
{ "type": "Feature", "properties": { "UNID": 104, "名称": "田上団地第２公園", "所在地": "田上台４丁目４６番", "経度": 130.5206699, "緯度": 31.5741318 }, "geometry": { "type": "Point", "coordinates": [ 130.5206699, 31.5741318 ] } },
{ "type": "Feature", "properties": { "UNID": 105, "名称": "田上団地第３公園", "所在地": "田上台４丁目３７番", "経度": 130.518139, "緯度": 31.57597272 }, "geometry": { "type": "Point", "coordinates": [ 130.518139, 31.57597272 ] } },
{ "type": "Feature", "properties": { "UNID": 106, "名称": "田上団地第４公園", "所在地": "田上台４丁目２９番", "経度": 130.5151183, "緯度": 31.57369113 }, "geometry": { "type": "Point", "coordinates": [ 130.515118300000012, 31.57369113 ] } },
{ "type": "Feature", "properties": { "UNID": 107, "名称": "田上団地第五公園", "所在地": "田上台４丁目１８番", "経度": 130.5167682, "緯度": 31.57248418 }, "geometry": { "type": "Point", "coordinates": [ 130.5167682, 31.57248418 ] } },
{ "type": "Feature", "properties": { "UNID": 108, "名称": "武岡北公園", "所在地": "武岡１丁目４番", "経度": 130.522599, "緯度": 31.59171705 }, "geometry": { "type": "Point", "coordinates": [ 130.522599, 31.59171705 ] } },
{ "type": "Feature", "properties": { "UNID": 109, "名称": "武岡下公園", "所在地": "武岡３丁目３３番", "経度": 130.5154361, "緯度": 31.59094057 }, "geometry": { "type": "Point", "coordinates": [ 130.515436099999988, 31.59094057 ] } },
{ "type": "Feature", "properties": { "UNID": 110, "名称": "武岡ハイランド第一公園", "所在地": "武岡４丁目３２番", "経度": 130.5098597, "緯度": 31.59302871 }, "geometry": { "type": "Point", "coordinates": [ 130.5098597, 31.59302871 ] } },
{ "type": "Feature", "properties": { "UNID": 111, "名称": "武岡ハイランド第五公園", "所在地": "武岡５丁目２６番", "経度": 130.5080918, "緯度": 31.59698851 }, "geometry": { "type": "Point", "coordinates": [ 130.508091799999988, 31.59698851 ] } },
{ "type": "Feature", "properties": { "UNID": 112, "名称": "武岡ハイランド第三公園", "所在地": "武岡５丁目４番", "経度": 130.5107064, "緯度": 31.59671538 }, "geometry": { "type": "Point", "coordinates": [ 130.5107064, 31.59671538 ] } },
{ "type": "Feature", "properties": { "UNID": 113, "名称": "武岡ハイランド第二公園", "所在地": "武岡４丁目１８番", "経度": 130.5116203, "緯度": 31.59495847 }, "geometry": { "type": "Point", "coordinates": [ 130.5116203, 31.59495847 ] } },
{ "type": "Feature", "properties": { "UNID": 114, "名称": "武岡ハイランド第六公園", "所在地": "武岡５丁目２８番", "経度": 130.506586, "緯度": 31.59603975 }, "geometry": { "type": "Point", "coordinates": [ 130.506586, 31.59603975 ] } },
{ "type": "Feature", "properties": { "UNID": 115, "名称": "武岡東公園", "所在地": "武岡１丁目１７番", "経度": 130.5203825, "緯度": 31.59102426 }, "geometry": { "type": "Point", "coordinates": [ 130.520382500000011, 31.59102426 ] } },
{ "type": "Feature", "properties": { "UNID": 116, "名称": "武岡ピュア公園", "所在地": "武岡１丁目１０１番", "経度": 130.523621, "緯度": 31.58730321 }, "geometry": { "type": "Point", "coordinates": [ 130.523621, 31.58730321 ] } },
{ "type": "Feature", "properties": { "UNID": 117, "名称": "武岡南公園", "所在地": "武岡１丁目２７番", "経度": 130.5222126, "緯度": 31.58885427 }, "geometry": { "type": "Point", "coordinates": [ 130.522212599999989, 31.58885427 ] } },
{ "type": "Feature", "properties": { "UNID": 118, "名称": "武岡やまびこ公園", "所在地": "武岡１丁目４４番", "経度": 130.517971, "緯度": 31.58967653 }, "geometry": { "type": "Point", "coordinates": [ 130.517971, 31.58967653 ] } },
{ "type": "Feature", "properties": { "UNID": 119, "名称": "武之台公園", "所在地": "武３丁目３８番", "経度": 130.5295567, "緯度": 31.58011288 }, "geometry": { "type": "Point", "coordinates": [ 130.5295567, 31.58011288 ] } },
{ "type": "Feature", "properties": { "UNID": 120, "名称": "天神公園", "所在地": "田上２丁目３１番", "経度": 130.5310955, "緯度": 31.57552359 }, "geometry": { "type": "Point", "coordinates": [ 130.5310955, 31.57552359 ] } },
{ "type": "Feature", "properties": { "UNID": 121, "名称": "唐湊公園", "所在地": "唐湊２丁目５番", "経度": 130.5338204, "緯度": 31.57025447 }, "geometry": { "type": "Point", "coordinates": [ 130.5338204, 31.57025447 ] } },
{ "type": "Feature", "properties": { "UNID": 122, "名称": "西陵第１公園", "所在地": "西陵１丁目２６番", "経度": 130.515295, "緯度": 31.58138428 }, "geometry": { "type": "Point", "coordinates": [ 130.515295, 31.58138428 ] } },
{ "type": "Feature", "properties": { "UNID": 123, "名称": "西陵第１０公園", "所在地": "西陵３丁目４２番", "経度": 130.5134229, "緯度": 31.58479414 }, "geometry": { "type": "Point", "coordinates": [ 130.5134229, 31.58479414 ] } },
{ "type": "Feature", "properties": { "UNID": 124, "名称": "西陵第１１公園", "所在地": "西陵３丁目２番", "経度": 130.5106502, "緯度": 31.58392139 }, "geometry": { "type": "Point", "coordinates": [ 130.510650199999986, 31.58392139 ] } },
{ "type": "Feature", "properties": { "UNID": 125, "名称": "西陵第１２公園", "所在地": "西陵６丁目１０番", "経度": 130.5059422, "緯度": 31.5800041 }, "geometry": { "type": "Point", "coordinates": [ 130.5059422, 31.5800041 ] } },
{ "type": "Feature", "properties": { "UNID": 126, "名称": "西陵第１３公園", "所在地": "西陵６丁目１７番", "経度": 130.5036604, "緯度": 31.58143613 }, "geometry": { "type": "Point", "coordinates": [ 130.5036604, 31.58143613 ] } },
{ "type": "Feature", "properties": { "UNID": 127, "名称": "西陵第１４公園", "所在地": "西陵７丁目２番", "経度": 130.5048502, "緯度": 31.58383889 }, "geometry": { "type": "Point", "coordinates": [ 130.5048502, 31.58383889 ] } },
{ "type": "Feature", "properties": { "UNID": 128, "名称": "西陵第１５公園", "所在地": "西陵８丁目２８番", "経度": 130.5016277, "緯度": 31.58423812 }, "geometry": { "type": "Point", "coordinates": [ 130.5016277, 31.58423812 ] } },
{ "type": "Feature", "properties": { "UNID": 129, "名称": "西陵第１６公園", "所在地": "西陵７丁目２９番", "経度": 130.5079905, "緯度": 31.58517851 }, "geometry": { "type": "Point", "coordinates": [ 130.5079905, 31.58517851 ] } },
{ "type": "Feature", "properties": { "UNID": 130, "名称": "西陵第１７公園", "所在地": "西陵８丁目４１番", "経度": 130.4984652, "緯度": 31.58502431 }, "geometry": { "type": "Point", "coordinates": [ 130.4984652, 31.58502431 ] } },
{ "type": "Feature", "properties": { "UNID": 131, "名称": "西陵第２公園", "所在地": "西陵１丁目１３番", "経度": 130.5177169, "緯度": 31.58038224 }, "geometry": { "type": "Point", "coordinates": [ 130.517716900000011, 31.58038224 ] } },
{ "type": "Feature", "properties": { "UNID": 132, "名称": "西陵第４公園", "所在地": "西陵１丁目３１番", "経度": 130.5175128, "緯度": 31.5814882 }, "geometry": { "type": "Point", "coordinates": [ 130.5175128, 31.5814882 ] } },
{ "type": "Feature", "properties": { "UNID": 133, "名称": "西陵第８公園", "所在地": "西陵２丁目１３番", "経度": 130.5135872, "緯度": 31.58003254 }, "geometry": { "type": "Point", "coordinates": [ 130.513587199999989, 31.58003254 ] } },
{ "type": "Feature", "properties": { "UNID": 134, "名称": "西陵第９公園", "所在地": "西陵３丁目２６番", "経度": 130.513697, "緯度": 31.58272433 }, "geometry": { "type": "Point", "coordinates": [ 130.513697, 31.58272433 ] } },
{ "type": "Feature", "properties": { "UNID": 135, "名称": "美尾崎公園", "所在地": "田上１丁目１１番　", "経度": 130.5325195, "緯度": 31.57625448 }, "geometry": { "type": "Point", "coordinates": [ 130.5325195, 31.57625448 ] } },
{ "type": "Feature", "properties": { "UNID": 136, "名称": "広木公園", "所在地": "田上町３９１０番付近", "経度": 130.5139613, "緯度": 31.57047748 }, "geometry": { "type": "Point", "coordinates": [ 130.5139613, 31.57047748 ] } },
{ "type": "Feature", "properties": { "UNID": 137, "名称": "武公園", "所在地": "武１丁目１８番１２", "経度": 130.5409559, "緯度": 31.5796246 }, "geometry": { "type": "Point", "coordinates": [ 130.5409559, 31.5796246 ] } },
{ "type": "Feature", "properties": { "UNID": 138, "名称": "武岡中央公園", "所在地": "武岡２丁目２５番", "経度": 130.5148019, "緯度": 31.59282043 }, "geometry": { "type": "Point", "coordinates": [ 130.5148019, 31.59282043 ] } },
{ "type": "Feature", "properties": { "UNID": 139, "名称": "向陽台公園", "所在地": "向陽１丁目５５１９番１３", "経度": 130.5175043, "緯度": 31.55981264 }, "geometry": { "type": "Point", "coordinates": [ 130.517504300000013, 31.55981264 ] } },
{ "type": "Feature", "properties": { "UNID": 140, "名称": "八洲ハイツ第二公園", "所在地": "向陽１丁目５５０８番２５", "経度": 130.5173745, "緯度": 31.55839688 }, "geometry": { "type": "Point", "coordinates": [ 130.517374499999988, 31.55839688 ] } },
{ "type": "Feature", "properties": { "UNID": 141, "名称": "柳田公園", "所在地": "武３丁目１２番", "経度": 130.5360164, "緯度": 31.57771733 }, "geometry": { "type": "Point", "coordinates": [ 130.5360164, 31.57771733 ] } },
{ "type": "Feature", "properties": { "UNID": 142, "名称": "池田公園", "所在地": "自由ヶ丘２丁目２５番", "経度": 130.5105989, "緯度": 31.5411177 }, "geometry": { "type": "Point", "coordinates": [ 130.5105989, 31.5411177 ] } },
{ "type": "Feature", "properties": { "UNID": 143, "名称": "射場前公園", "所在地": "小松原１丁目６８番", "経度": 130.5292583, "緯度": 31.53148755 }, "geometry": { "type": "Point", "coordinates": [ 130.5292583, 31.53148755 ] } },
{ "type": "Feature", "properties": { "UNID": 144, "名称": "入来公園", "所在地": "東谷山７丁目１９番", "経度": 130.517419, "緯度": 31.54116448 }, "geometry": { "type": "Point", "coordinates": [ 130.517419, 31.54116448 ] } },
{ "type": "Feature", "properties": { "UNID": 145, "名称": "上田公園", "所在地": "東谷山５丁目３２番", "経度": 130.515127, "緯度": 31.52985889 }, "geometry": { "type": "Point", "coordinates": [ 130.515127, 31.52985889 ] } },
{ "type": "Feature", "properties": { "UNID": 146, "名称": "魚見第１公園", "所在地": "魚見町１１０番１", "経度": 130.5254133, "緯度": 31.53903668 }, "geometry": { "type": "Point", "coordinates": [ 130.5254133, 31.53903668 ] } },
{ "type": "Feature", "properties": { "UNID": 147, "名称": "魚見第２公園", "所在地": "魚見町１２９番１", "経度": 130.5203276, "緯度": 31.5414254 }, "geometry": { "type": "Point", "coordinates": [ 130.5203276, 31.5414254 ] } },
{ "type": "Feature", "properties": { "UNID": 148, "名称": "魚見第３公園", "所在地": "魚見町１３６番１", "経度": 130.5196356, "緯度": 31.54304117 }, "geometry": { "type": "Point", "coordinates": [ 130.519635599999987, 31.54304117 ] } },
{ "type": "Feature", "properties": { "UNID": 149, "名称": "魚見第４公園", "所在地": "魚見町１５６番１", "経度": 130.515768, "緯度": 31.54334627 }, "geometry": { "type": "Point", "coordinates": [ 130.515768, 31.54334627 ] } },
{ "type": "Feature", "properties": { "UNID": 150, "名称": "魚見第５公園", "所在地": "魚見町１６２番２", "経度": 130.5185555, "緯度": 31.54516297 }, "geometry": { "type": "Point", "coordinates": [ 130.5185555, 31.54516297 ] } },
{ "type": "Feature", "properties": { "UNID": 151, "名称": "後迫公園", "所在地": "中山２丁目３４番", "経度": 130.5055166, "緯度": 31.5517365 }, "geometry": { "type": "Point", "coordinates": [ 130.5055166, 31.5517365 ] } },
{ "type": "Feature", "properties": { "UNID": 152, "名称": "江月庵公園", "所在地": "東谷山６丁目３０番", "経度": 130.5202358, "緯度": 31.53901868 }, "geometry": { "type": "Point", "coordinates": [ 130.5202358, 31.53901868 ] } },
{ "type": "Feature", "properties": { "UNID": 153, "名称": "大川内公園", "所在地": "星ヶ峯６丁目６０番", "経度": 130.4932218, "緯度": 31.57108515 }, "geometry": { "type": "Point", "coordinates": [ 130.493221799999986, 31.57108515 ] } },
{ "type": "Feature", "properties": { "UNID": 154, "名称": "大戸平公園", "所在地": "中山２丁目２３番", "経度": 130.5083334, "緯度": 31.54906775 }, "geometry": { "type": "Point", "coordinates": [ 130.5083334, 31.54906775 ] } },
{ "type": "Feature", "properties": { "UNID": 155, "名称": "奥公園", "所在地": "東谷山４丁目２０番", "経度": 130.5215959, "緯度": 31.53473417 }, "geometry": { "type": "Point", "coordinates": [ 130.5215959, 31.53473417 ] } },
{ "type": "Feature", "properties": { "UNID": 156, "名称": "角明田公園", "所在地": "中山２丁目１６番", "経度": 130.5088506, "緯度": 31.54638114 }, "geometry": { "type": "Point", "coordinates": [ 130.508850599999988, 31.54638114 ] } },
{ "type": "Feature", "properties": { "UNID": 157, "名称": "鹿児島ふれあいスポーツランド", "所在地": "中山町５９１番１外", "経度": 130.4916684, "緯度": 31.54878808 }, "geometry": { "type": "Point", "coordinates": [ 130.4916684, 31.54878808 ] } },
{ "type": "Feature", "properties": { "UNID": 158, "名称": "希望ヶ丘公園", "所在地": "希望ヶ丘町１２番", "経度": 130.5161613, "緯度": 31.53797998 }, "geometry": { "type": "Point", "coordinates": [ 130.5161613, 31.53797998 ] } },
{ "type": "Feature", "properties": { "UNID": 159, "名称": "清見公園", "所在地": "東谷山３丁目２７番", "経度": 130.5182356, "緯度": 31.52978677 }, "geometry": { "type": "Point", "coordinates": [ 130.5182356, 31.52978677 ] } },
{ "type": "Feature", "properties": { "UNID": 160, "名称": "黒ぢょか公園", "所在地": "星ヶ峯４丁目３１番", "経度": 130.49063, "緯度": 31.57979352 }, "geometry": { "type": "Point", "coordinates": [ 130.49063, 31.57979352 ] } },
{ "type": "Feature", "properties": { "UNID": 161, "名称": "皇徳寺あすなろ公園", "所在地": "皇徳寺台３丁目４番", "経度": 130.4897727, "緯度": 31.56100551 }, "geometry": { "type": "Point", "coordinates": [ 130.4897727, 31.56100551 ] } },
{ "type": "Feature", "properties": { "UNID": 162, "名称": "皇徳寺北公園", "所在地": "皇徳寺台５丁目２番", "経度": 130.4840096, "緯度": 31.5654684 }, "geometry": { "type": "Point", "coordinates": [ 130.4840096, 31.5654684 ] } },
{ "type": "Feature", "properties": { "UNID": 163, "名称": "皇徳寺くらら城公園", "所在地": "皇徳寺台２丁目５０番", "経度": 130.4921768, "緯度": 31.55517917 }, "geometry": { "type": "Point", "coordinates": [ 130.49217680000001, 31.55517917 ] } },
{ "type": "Feature", "properties": { "UNID": 164, "名称": "皇徳寺グランド公園", "所在地": "皇徳寺台４丁目３２番", "経度": 130.4827067, "緯度": 31.5635536 }, "geometry": { "type": "Point", "coordinates": [ 130.4827067, 31.5635536 ] } },
{ "type": "Feature", "properties": { "UNID": 165, "名称": "皇徳寺しいの木公園", "所在地": "皇徳寺台５丁目５番", "経度": 130.4811199, "緯度": 31.56599545 }, "geometry": { "type": "Point", "coordinates": [ 130.48111990000001, 31.56599545 ] } },
{ "type": "Feature", "properties": { "UNID": 166, "名称": "皇徳寺中央公園", "所在地": "皇徳寺台３丁目４番", "経度": 130.4915576, "緯度": 31.55980859 }, "geometry": { "type": "Point", "coordinates": [ 130.4915576, 31.55980859 ] } },
{ "type": "Feature", "properties": { "UNID": 167, "名称": "皇徳寺西公園", "所在地": "皇徳寺台５丁目２７番", "経度": 130.4794641, "緯度": 31.56396959 }, "geometry": { "type": "Point", "coordinates": [ 130.4794641, 31.56396959 ] } },
{ "type": "Feature", "properties": { "UNID": 168, "名称": "皇徳寺東公園", "所在地": "皇徳寺台１丁目２３番", "経度": 130.4970355, "緯度": 31.55946314 }, "geometry": { "type": "Point", "coordinates": [ 130.49703550000001, 31.55946314 ] } },
{ "type": "Feature", "properties": { "UNID": 169, "名称": "皇徳寺南公園", "所在地": "皇徳寺台２丁目２１番", "経度": 130.4954739, "緯度": 31.55754755 }, "geometry": { "type": "Point", "coordinates": [ 130.4954739, 31.55754755 ] } },
{ "type": "Feature", "properties": { "UNID": 170, "名称": "皇徳寺もくせい公園", "所在地": "皇徳寺台３丁目３１番", "経度": 130.4886989, "緯度": 31.56275041 }, "geometry": { "type": "Point", "coordinates": [ 130.4886989, 31.56275041 ] } },
{ "type": "Feature", "properties": { "UNID": 171, "名称": "小松原公園", "所在地": "小松原２丁目２６番", "経度": 130.5262608, "緯度": 31.52758496 }, "geometry": { "type": "Point", "coordinates": [ 130.526260799999989, 31.52758496 ] } },
{ "type": "Feature", "properties": { "UNID": 172, "名称": "桜ヶ丘一丁目公園", "所在地": "桜ヶ丘１丁目２４番", "経度": 130.5127275, "緯度": 31.5597547 }, "geometry": { "type": "Point", "coordinates": [ 130.512727500000011, 31.5597547 ] } },
{ "type": "Feature", "properties": { "UNID": 173, "名称": "桜ヶ丘北公園", "所在地": "桜ヶ丘１丁目２８番", "経度": 130.5149494, "緯度": 31.55984467 }, "geometry": { "type": "Point", "coordinates": [ 130.5149494, 31.55984467 ] } },
{ "type": "Feature", "properties": { "UNID": 174, "名称": "桜ヶ丘五丁目公園", "所在地": "桜ヶ丘５丁目２６番", "経度": 130.5180793, "緯度": 31.54823251 }, "geometry": { "type": "Point", "coordinates": [ 130.518079300000011, 31.54823251 ] } },
{ "type": "Feature", "properties": { "UNID": 175, "名称": "桜ヶ丘三丁目公園", "所在地": "桜ヶ丘３丁目３０番", "経度": 130.5136127, "緯度": 31.54939338 }, "geometry": { "type": "Point", "coordinates": [ 130.51361270000001, 31.54939338 ] } },
{ "type": "Feature", "properties": { "UNID": 176, "名称": "桜ヶ丘中央公園", "所在地": "桜ヶ丘４丁目１番", "経度": 130.5143333, "緯度": 31.55337674 }, "geometry": { "type": "Point", "coordinates": [ 130.5143333, 31.55337674 ] } },
{ "type": "Feature", "properties": { "UNID": 177, "名称": "桜ヶ丘二丁目公園", "所在地": "桜ヶ丘２丁目１６番", "経度": 130.512685, "緯度": 31.55592439 }, "geometry": { "type": "Point", "coordinates": [ 130.512685, 31.55592439 ] } },
{ "type": "Feature", "properties": { "UNID": 178, "名称": "桜ヶ丘南公園", "所在地": "桜ヶ丘５丁目１１番", "経度": 130.520887, "緯度": 31.54965522 }, "geometry": { "type": "Point", "coordinates": [ 130.520887, 31.54965522 ] } },
{ "type": "Feature", "properties": { "UNID": 179, "名称": "桜ヶ丘四丁目公園", "所在地": "桜ヶ丘４丁目１０番", "経度": 130.517476, "緯度": 31.55353868 }, "geometry": { "type": "Point", "coordinates": [ 130.517476, 31.55353868 ] } },
{ "type": "Feature", "properties": { "UNID": 180, "名称": "桜ヶ丘六丁目公園", "所在地": "桜ヶ丘６丁目２４番", "経度": 130.5208563, "緯度": 31.54539481 }, "geometry": { "type": "Point", "coordinates": [ 130.5208563, 31.54539481 ] } },
{ "type": "Feature", "properties": { "UNID": 181, "名称": "桜川公園", "所在地": "東谷山２丁目４５番", "経度": 130.5229599, "緯度": 31.53280335 }, "geometry": { "type": "Point", "coordinates": [ 130.522959899999989, 31.53280335 ] } },
{ "type": "Feature", "properties": { "UNID": 182, "名称": "笹貫公園", "所在地": "東谷山１丁目３２番", "経度": 130.5313087, "緯度": 31.53844979 }, "geometry": { "type": "Point", "coordinates": [ 130.531308700000011, 31.53844979 ] } },
{ "type": "Feature", "properties": { "UNID": 183, "名称": "島ノ森公園", "所在地": "東谷山５丁目３９番", "経度": 130.5139242, "緯度": 31.52887102 }, "geometry": { "type": "Point", "coordinates": [ 130.5139242, 31.52887102 ] } },
{ "type": "Feature", "properties": { "UNID": 184, "名称": "自由ヶ丘公園", "所在地": "自由ヶ丘２丁目２番", "経度": 130.5110665, "緯度": 31.54347237 }, "geometry": { "type": "Point", "coordinates": [ 130.5110665, 31.54347237 ] } },
{ "type": "Feature", "properties": { "UNID": 185, "名称": "松林寺公園", "所在地": "谷山中央３丁目４８４８番", "経度": 130.5176303, "緯度": 31.51561004 }, "geometry": { "type": "Point", "coordinates": [ 130.5176303, 31.51561004 ] } },
{ "type": "Feature", "properties": { "UNID": 186, "名称": "城跡公園", "所在地": "自由ヶ丘１丁目９番", "経度": 130.5145644, "緯度": 31.54049463 }, "geometry": { "type": "Point", "coordinates": [ 130.514564400000012, 31.54049463 ] } },
{ "type": "Feature", "properties": { "UNID": 187, "名称": "新入公園", "所在地": "東谷山６丁目４１番", "経度": 130.5194771, "緯度": 31.53566115 }, "geometry": { "type": "Point", "coordinates": [ 130.519477099999989, 31.53566115 ] } },
{ "type": "Feature", "properties": { "UNID": 188, "名称": "砂走公園", "所在地": "東谷山１丁目６３番", "経度": 130.5267823, "緯度": 31.53462723 }, "geometry": { "type": "Point", "coordinates": [ 130.5267823, 31.53462723 ] } },
{ "type": "Feature", "properties": { "UNID": 189, "名称": "せせらぎ公園", "所在地": "星ヶ峯４丁目３１の一部", "経度": 130.4918118, "緯度": 31.5799958 }, "geometry": { "type": "Point", "coordinates": [ 130.4918118, 31.5799958 ] } },
{ "type": "Feature", "properties": { "UNID": 190, "名称": "高見公園", "所在地": "東谷山１丁目２７番", "経度": 130.5299029, "緯度": 31.53794779 }, "geometry": { "type": "Point", "coordinates": [ 130.5299029, 31.53794779 ] } },
{ "type": "Feature", "properties": { "UNID": 191, "名称": "中塩屋公園", "所在地": "小松原２丁目８番", "経度": 130.5260287, "緯度": 31.53096355 }, "geometry": { "type": "Point", "coordinates": [ 130.526028700000012, 31.53096355 ] } },
{ "type": "Feature", "properties": { "UNID": 192, "名称": "中山真方公園", "所在地": "中山町１９５５番３外", "経度": 130.5019062, "緯度": 31.5384035 }, "geometry": { "type": "Point", "coordinates": [ 130.5019062, 31.5384035 ] } },
{ "type": "Feature", "properties": { "UNID": 193, "名称": "波之平公園", "所在地": "東谷山６丁目５番", "経度": 130.5233006, "緯度": 31.53639892 }, "geometry": { "type": "Point", "coordinates": [ 130.5233006, 31.53639892 ] } },
{ "type": "Feature", "properties": { "UNID": 194, "名称": "西平公園", "所在地": "中山１丁目２７番", "経度": 130.5078662, "緯度": 31.55202425 }, "geometry": { "type": "Point", "coordinates": [ 130.5078662, 31.55202425 ] } },
{ "type": "Feature", "properties": { "UNID": 195, "名称": "東開公園", "所在地": "小松原１丁目７番", "経度": 130.5352283, "緯度": 31.53767488 }, "geometry": { "type": "Point", "coordinates": [ 130.5352283, 31.53767488 ] } },
{ "type": "Feature", "properties": { "UNID": 196, "名称": "日之出公園", "所在地": "小松原１丁目３３番", "経度": 130.5313669, "緯度": 31.53544609 }, "geometry": { "type": "Point", "coordinates": [ 130.5313669, 31.53544609 ] } },
{ "type": "Feature", "properties": { "UNID": 197, "名称": "平馬場公園", "所在地": "中山町１６３７番", "経度": 130.4953561, "緯度": 31.54125661 }, "geometry": { "type": "Point", "coordinates": [ 130.4953561, 31.54125661 ] } },
{ "type": "Feature", "properties": { "UNID": 198, "名称": "舟石公園", "所在地": "皇徳寺台３丁目８７付近", "経度": 130.4865916, "緯度": 31.55872106 }, "geometry": { "type": "Point", "coordinates": [ 130.4865916, 31.55872106 ] } },
{ "type": "Feature", "properties": { "UNID": 199, "名称": "ふれあい公園", "所在地": "皇徳寺台３丁目６５番", "経度": 130.4870453, "緯度": 31.56083777 }, "geometry": { "type": "Point", "coordinates": [ 130.4870453, 31.56083777 ] } },
{ "type": "Feature", "properties": { "UNID": 200, "名称": "星ヶ峯第１公園", "所在地": "星ヶ峯３丁目４３番", "経度": 130.4915608, "緯度": 31.5819252 }, "geometry": { "type": "Point", "coordinates": [ 130.4915608, 31.5819252 ] } },
{ "type": "Feature", "properties": { "UNID": 201, "名称": "星ヶ峯第１０公園", "所在地": "星ヶ峯５丁目１２番", "経度": 130.4829157, "緯度": 31.57848121 }, "geometry": { "type": "Point", "coordinates": [ 130.4829157, 31.57848121 ] } },
{ "type": "Feature", "properties": { "UNID": 202, "名称": "星ヶ峯第２公園", "所在地": "星ヶ峯３丁目２５番", "経度": 130.4935483, "緯度": 31.58055113 }, "geometry": { "type": "Point", "coordinates": [ 130.493548299999986, 31.58055113 ] } },
{ "type": "Feature", "properties": { "UNID": 203, "名称": "星ヶ峯第２０公園", "所在地": "星ヶ峯１丁目６２番", "経度": 130.5048436, "緯度": 31.56793844 }, "geometry": { "type": "Point", "coordinates": [ 130.504843599999987, 31.56793844 ] } },
{ "type": "Feature", "properties": { "UNID": 204, "名称": "星ヶ峯第３公園", "所在地": "星ヶ峯３丁目９番", "経度": 130.4952311, "緯度": 31.57890714 }, "geometry": { "type": "Point", "coordinates": [ 130.495231100000012, 31.57890714 ] } },
{ "type": "Feature", "properties": { "UNID": 205, "名称": "星ヶ峯第７公園", "所在地": "星ヶ峯２丁目５９番", "経度": 130.4952343, "緯度": 31.57214082 }, "geometry": { "type": "Point", "coordinates": [ 130.4952343, 31.57214082 ] } },
{ "type": "Feature", "properties": { "UNID": 206, "名称": "星ヶ峯第８公園", "所在地": "星ヶ峯４丁目２４番", "経度": 130.4887195, "緯度": 31.57820777 }, "geometry": { "type": "Point", "coordinates": [ 130.4887195, 31.57820777 ] } },
{ "type": "Feature", "properties": { "UNID": 207, "名称": "星ヶ峯第９公園", "所在地": "星ヶ峯４丁目４２番", "経度": 130.4859599, "緯度": 31.58058078 }, "geometry": { "type": "Point", "coordinates": [ 130.485959900000012, 31.58058078 ] } },
{ "type": "Feature", "properties": { "UNID": 208, "名称": "星ヶ峯第１１公園", "所在地": "星ヶ峯５丁目５番", "経度": 130.4855982, "緯度": 31.57751617 }, "geometry": { "type": "Point", "coordinates": [ 130.4855982, 31.57751617 ] } },
{ "type": "Feature", "properties": { "UNID": 209, "名称": "星ヶ峯第１２公園", "所在地": "星ヶ峯５丁目３６番", "経度": 130.4820228, "緯度": 31.57368476 }, "geometry": { "type": "Point", "coordinates": [ 130.48202280000001, 31.57368476 ] } },
{ "type": "Feature", "properties": { "UNID": 210, "名称": "星ヶ峯第１３公園", "所在地": "星ヶ峯５丁目２４番", "経度": 130.4844714, "緯度": 31.57527651 }, "geometry": { "type": "Point", "coordinates": [ 130.4844714, 31.57527651 ] } },
{ "type": "Feature", "properties": { "UNID": 211, "名称": "星ヶ峯第１４公園", "所在地": "星ヶ峯２丁目６１番", "経度": 130.4947025, "緯度": 31.57292588 }, "geometry": { "type": "Point", "coordinates": [ 130.494702499999988, 31.57292588 ] } },
{ "type": "Feature", "properties": { "UNID": 212, "名称": "星ヶ峯第１６公園", "所在地": "星ヶ峯１丁目１番", "経度": 130.5003593, "緯度": 31.5739102 }, "geometry": { "type": "Point", "coordinates": [ 130.500359300000014, 31.5739102 ] } },
{ "type": "Feature", "properties": { "UNID": 213, "名称": "星ヶ峯第１７公園", "所在地": "星ヶ峯１丁目３２番", "経度": 130.5029619, "緯度": 31.57148919 }, "geometry": { "type": "Point", "coordinates": [ 130.5029619, 31.57148919 ] } },
{ "type": "Feature", "properties": { "UNID": 214, "名称": "星ヶ峯第１９公園", "所在地": "星ヶ峯１丁目４７番", "経度": 130.5056563, "緯度": 31.57029408 }, "geometry": { "type": "Point", "coordinates": [ 130.5056563, 31.57029408 ] } },
{ "type": "Feature", "properties": { "UNID": 215, "名称": "星ヶ峯中央公園", "所在地": "星ヶ峯２丁目２番", "経度": 130.4991926, "緯度": 31.57269642 }, "geometry": { "type": "Point", "coordinates": [ 130.499192599999986, 31.57269642 ] } },
{ "type": "Feature", "properties": { "UNID": 216, "名称": "星ケ峯第２１公園", "所在地": "星ヶ峯６丁目９番１", "経度": 130.491058, "緯度": 31.57721373 }, "geometry": { "type": "Point", "coordinates": [ 130.491058, 31.57721373 ] } },
{ "type": "Feature", "properties": { "UNID": 217, "名称": "星ケ峯第２２公園", "所在地": "星ヶ峯６丁目２０番１", "経度": 130.4910301, "緯度": 31.57463197 }, "geometry": { "type": "Point", "coordinates": [ 130.491030099999989, 31.57463197 ] } },
{ "type": "Feature", "properties": { "UNID": 218, "名称": "本馬越公園", "所在地": "中山２丁目５番", "経度": 130.5111422, "緯度": 31.54676093 }, "geometry": { "type": "Point", "coordinates": [ 130.5111422, 31.54676093 ] } },
{ "type": "Feature", "properties": { "UNID": 219, "名称": "南皇徳寺見晴らし台公園", "所在地": "山田町１２０７番１９外", "経度": 130.4844658, "緯度": 31.55935211 }, "geometry": { "type": "Point", "coordinates": [ 130.4844658, 31.55935211 ] } },
{ "type": "Feature", "properties": { "UNID": 220, "名称": "薬師堂公園", "所在地": "東谷山５丁目１５番", "経度": 130.5160187, "緯度": 31.53275648 }, "geometry": { "type": "Point", "coordinates": [ 130.516018699999989, 31.53275648 ] } },
{ "type": "Feature", "properties": { "UNID": 221, "名称": "星ヶ峯第２３公園", "所在地": "星ヶ峯６丁目５４番", "経度": 130.4906802, "緯度": 31.57166034 }, "geometry": { "type": "Point", "coordinates": [ 130.490680200000014, 31.57166034 ] } },
{ "type": "Feature", "properties": { "UNID": 222, "名称": "内ノ丸公園", "所在地": "和田２丁目１３番", "経度": 130.5093406, "緯度": 31.50875057 }, "geometry": { "type": "Point", "coordinates": [ 130.5093406, 31.50875057 ] } },
{ "type": "Feature", "properties": { "UNID": 223, "名称": "烏帽子田公園", "所在地": "谷山中央６丁目４番", "経度": 130.5080583, "緯度": 31.51817998 }, "geometry": { "type": "Point", "coordinates": [ 130.508058299999988, 31.51817998 ] } },
{ "type": "Feature", "properties": { "UNID": 224, "名称": "円明庵公園", "所在地": "谷山中央１丁目５０２７番付近", "経度": 130.5142615, "緯度": 31.52246351 }, "geometry": { "type": "Point", "coordinates": [ 130.5142615, 31.52246351 ] } },
{ "type": "Feature", "properties": { "UNID": 225, "名称": "卸本町公園", "所在地": "卸本町５番の一部", "経度": 130.5217158, "緯度": 31.51774382 }, "geometry": { "type": "Point", "coordinates": [ 130.52171580000001, 31.51774382 ] } },
{ "type": "Feature", "properties": { "UNID": 226, "名称": "笠松公園", "所在地": "下福元町８９６９番１", "経度": 130.4895649, "緯度": 31.49529991 }, "geometry": { "type": "Point", "coordinates": [ 130.4895649, 31.49529991 ] } },
{ "type": "Feature", "properties": { "UNID": 227, "名称": "錦江台東公園", "所在地": "錦江台１丁目２番", "経度": 130.5013454, "緯度": 31.50656678 }, "geometry": { "type": "Point", "coordinates": [ 130.5013454, 31.50656678 ] } },
{ "type": "Feature", "properties": { "UNID": 228, "名称": "こまつばら団地公園", "所在地": "谷山中央２丁目７０２番３３付近", "経度": 130.5244033, "緯度": 31.52340632 }, "geometry": { "type": "Point", "coordinates": [ 130.524403299999989, 31.52340632 ] } },
{ "type": "Feature", "properties": { "UNID": 229, "名称": "坂之上駅前公園", "所在地": "坂之上４丁目８番", "経度": 130.5060879, "緯度": 31.49936503 }, "geometry": { "type": "Point", "coordinates": [ 130.506087900000011, 31.49936503 ] } },
{ "type": "Feature", "properties": { "UNID": 230, "名称": "坂之上南公園", "所在地": "下福元町７１２６番２", "経度": 130.5002769, "緯度": 31.48707447 }, "geometry": { "type": "Point", "coordinates": [ 130.500276899999989, 31.48707447 ] } },
{ "type": "Feature", "properties": { "UNID": 231, "名称": "慈眼寺中公園", "所在地": "下福元町３７８５－１付近", "経度": 130.5011998, "緯度": 31.50965921 }, "geometry": { "type": "Point", "coordinates": [ 130.5011998, 31.50965921 ] } },
{ "type": "Feature", "properties": { "UNID": 232, "名称": "慈眼寺東公園", "所在地": "慈眼寺町１６番", "経度": 130.5057587, "緯度": 31.51366125 }, "geometry": { "type": "Point", "coordinates": [ 130.5057587, 31.51366125 ] } },
{ "type": "Feature", "properties": { "UNID": 233, "名称": "島ノ前公園", "所在地": "谷山中央５丁目３４番", "経度": 130.5129669, "緯度": 31.51558206 }, "geometry": { "type": "Point", "coordinates": [ 130.5129669, 31.51558206 ] } },
{ "type": "Feature", "properties": { "UNID": 234, "名称": "大工田公園", "所在地": "谷山中央７丁目３６番", "経度": 130.5120078, "緯度": 31.52251153 }, "geometry": { "type": "Point", "coordinates": [ 130.5120078, 31.52251153 ] } },
{ "type": "Feature", "properties": { "UNID": 235, "名称": "田辺公園", "所在地": "谷山中央８丁目１２", "経度": 130.5123746, "緯度": 31.52487137 }, "geometry": { "type": "Point", "coordinates": [ 130.512374599999987, 31.52487137 ] } },
{ "type": "Feature", "properties": { "UNID": 236, "名称": "谷山第一中央公園", "所在地": "谷山中央７丁目２９番", "経度": 130.5124597, "緯度": 31.51984872 }, "geometry": { "type": "Point", "coordinates": [ 130.5124597, 31.51984872 ] } },
{ "type": "Feature", "properties": { "UNID": 237, "名称": "谷山恵美須公園", "所在地": "谷山中央６丁目４９番", "経度": 130.5088484, "緯度": 31.51390224 }, "geometry": { "type": "Point", "coordinates": [ 130.5088484, 31.51390224 ] } },
{ "type": "Feature", "properties": { "UNID": 238, "名称": "玉林団地公園", "所在地": "和田３丁目４３番", "経度": 130.51328, "緯度": 31.50872156 }, "geometry": { "type": "Point", "coordinates": [ 130.51328, 31.50872156 ] } },
{ "type": "Feature", "properties": { "UNID": 239, "名称": "中央慈眼寺台第一公園", "所在地": "慈眼寺町２６番", "経度": 130.504407, "緯度": 31.51077446 }, "geometry": { "type": "Point", "coordinates": [ 130.504407, 31.51077446 ] } },
{ "type": "Feature", "properties": { "UNID": 240, "名称": "中央慈眼寺台第二公園", "所在地": "慈眼寺町３３番", "経度": 130.5031452, "緯度": 31.50981455 }, "geometry": { "type": "Point", "coordinates": [ 130.5031452, 31.50981455 ] } },
{ "type": "Feature", "properties": { "UNID": 241, "名称": "七ツ島公園", "所在地": "七ツ島１丁目２３番１外", "経度": 130.5119722, "緯度": 31.4706234 }, "geometry": { "type": "Point", "coordinates": [ 130.5119722, 31.4706234 ] } },
{ "type": "Feature", "properties": { "UNID": 242, "名称": "錦江湾公園", "所在地": "平川町２１７０", "経度": 130.5077902, "緯度": 31.46247828 }, "geometry": { "type": "Point", "coordinates": [ 130.507790199999988, 31.46247828 ] } },
{ "type": "Feature", "properties": { "UNID": 243, "名称": "ニュー慈眼寺団地公園", "所在地": "錦江台２丁目１３番", "経度": 130.4999258, "緯度": 31.50427089 }, "geometry": { "type": "Point", "coordinates": [ 130.4999258, 31.50427089 ] } },
{ "type": "Feature", "properties": { "UNID": 244, "名称": "ニワ都市公園", "所在地": "南栄５丁目１０番", "経度": 130.5183855, "緯度": 31.50657069 }, "geometry": { "type": "Point", "coordinates": [ 130.5183855, 31.50657069 ] } },
{ "type": "Feature", "properties": { "UNID": 245, "名称": "野頭公園", "所在地": "下福元町７４８０番６１", "経度": 130.4992709, "緯度": 31.48702444 }, "geometry": { "type": "Point", "coordinates": [ 130.4992709, 31.48702444 ] } },
{ "type": "Feature", "properties": { "UNID": 246, "名称": "東新緑地公園", "所在地": "谷山中央３丁目３８３番２１", "経度": 130.5202978, "緯度": 31.51993362 }, "geometry": { "type": "Point", "coordinates": [ 130.5202978, 31.51993362 ] } },
{ "type": "Feature", "properties": { "UNID": 247, "名称": "不動寺公園", "所在地": "上福元町６３５９番の一部外", "経度": 130.5043895, "緯度": 31.52430753 }, "geometry": { "type": "Point", "coordinates": [ 130.5043895, 31.52430753 ] } },
{ "type": "Feature", "properties": { "UNID": 248, "名称": "星和台団地第一公園", "所在地": "錦江台３丁目１２番", "経度": 130.4978158, "緯度": 31.50005901 }, "geometry": { "type": "Point", "coordinates": [ 130.497815800000012, 31.50005901 ] } },
{ "type": "Feature", "properties": { "UNID": 249, "名称": "港中央公園", "所在地": "谷山港２丁目５番", "経度": 130.5256357, "緯度": 31.49694732 }, "geometry": { "type": "Point", "coordinates": [ 130.5256357, 31.49694732 ] } },
{ "type": "Feature", "properties": { "UNID": 250, "名称": "港緑地公園", "所在地": "谷山中央３丁目３８３番６", "経度": 130.5197401, "緯度": 31.51822275 }, "geometry": { "type": "Point", "coordinates": [ 130.5197401, 31.51822275 ] } },
{ "type": "Feature", "properties": { "UNID": 251, "名称": "南栄公園", "所在地": "南栄３丁目１７番", "経度": 130.5295981, "緯度": 31.51438062 }, "geometry": { "type": "Point", "coordinates": [ 130.529598099999987, 31.51438062 ] } },
{ "type": "Feature", "properties": { "UNID": 252, "名称": "門前公園", "所在地": "和田２丁目２７番", "経度": 130.5066058, "緯度": 31.51003954 }, "geometry": { "type": "Point", "coordinates": [ 130.506605799999988, 31.51003954 ] } },
{ "type": "Feature", "properties": { "UNID": 253, "名称": "和田名公園", "所在地": "和田１丁目３７番", "経度": 130.5109133, "緯度": 31.51079545 }, "geometry": { "type": "Point", "coordinates": [ 130.5109133, 31.51079545 ] } },
{ "type": "Feature", "properties": { "UNID": 254, "名称": "明ヶ窪公園", "所在地": "伊敷台７丁目８番", "経度": 130.5475146, "緯度": 31.62755263 }, "geometry": { "type": "Point", "coordinates": [ 130.5475146, 31.62755263 ] } },
{ "type": "Feature", "properties": { "UNID": 255, "名称": "いて座公園", "所在地": "伊敷台７丁目４番の一部", "経度": 130.5479825, "緯度": 31.63031846 }, "geometry": { "type": "Point", "coordinates": [ 130.547982499999989, 31.63031846 ] } },
{ "type": "Feature", "properties": { "UNID": 256, "名称": "伊敷団地第一公園", "所在地": "西伊敷１丁目２９番", "経度": 130.528601, "緯度": 31.63087908 }, "geometry": { "type": "Point", "coordinates": [ 130.528601, 31.63087908 ] } },
{ "type": "Feature", "properties": { "UNID": 257, "名称": "伊敷中央公園", "所在地": "西伊敷３丁目１６番", "経度": 130.5303913, "緯度": 31.6403016 }, "geometry": { "type": "Point", "coordinates": [ 130.5303913, 31.6403016 ] } },
{ "type": "Feature", "properties": { "UNID": 258, "名称": "上日当平公園", "所在地": "下伊敷２丁目２８番", "経度": 130.5414073, "緯度": 31.62198389 }, "geometry": { "type": "Point", "coordinates": [ 130.5414073, 31.62198389 ] } },
{ "type": "Feature", "properties": { "UNID": 259, "名称": "うお座公園", "所在地": "伊敷台２丁目１番", "経度": 130.532081, "緯度": 31.62236161 }, "geometry": { "type": "Point", "coordinates": [ 130.532081, 31.62236161 ] } },
{ "type": "Feature", "properties": { "UNID": 260, "名称": "栄門公園", "所在地": "下伊敷１丁目３６番", "経度": 130.5338874, "緯度": 31.61175904 }, "geometry": { "type": "Point", "coordinates": [ 130.5338874, 31.61175904 ] } },
{ "type": "Feature", "properties": { "UNID": 261, "名称": "おうし座公園", "所在地": "伊敷台３丁目１番", "経度": 130.5320429, "緯度": 31.62505541 }, "geometry": { "type": "Point", "coordinates": [ 130.5320429, 31.62505541 ] } },
{ "type": "Feature", "properties": { "UNID": 262, "名称": "大平田公園", "所在地": "伊敷５丁目７番", "経度": 130.5233617, "緯度": 31.62578808 }, "geometry": { "type": "Point", "coordinates": [ 130.5233617, 31.62578808 ] } },
{ "type": "Feature", "properties": { "UNID": 263, "名称": "おとめ座公園", "所在地": "伊敷台５丁目１９番", "経度": 130.5403691, "緯度": 31.62857846 }, "geometry": { "type": "Point", "coordinates": [ 130.5403691, 31.62857846 ] } },
{ "type": "Feature", "properties": { "UNID": 264, "名称": "小野公園", "所在地": "小野３丁目３４番　", "経度": 130.5125764, "緯度": 31.61344837 }, "geometry": { "type": "Point", "coordinates": [ 130.5125764, 31.61344837 ] } },
{ "type": "Feature", "properties": { "UNID": 265, "名称": "おひつじ座公園", "所在地": "伊敷台１丁目７番", "経度": 130.53316, "緯度": 31.62151167 }, "geometry": { "type": "Point", "coordinates": [ 130.53316, 31.62151167 ] } },
{ "type": "Feature", "properties": { "UNID": 266, "名称": "かごしま健康の森公園", "所在地": "犬迫町８２５番外", "経度": 130.5048877, "緯度": 31.64516901 }, "geometry": { "type": "Point", "coordinates": [ 130.504887700000012, 31.64516901 ] } },
{ "type": "Feature", "properties": { "UNID": 267, "名称": "かに座公園", "所在地": "伊敷台２丁目２６番", "経度": 130.5354314, "緯度": 31.62790741 }, "geometry": { "type": "Point", "coordinates": [ 130.5354314, 31.62790741 ] } },
{ "type": "Feature", "properties": { "UNID": 268, "名称": "桂庵公園", "所在地": "伊敷２丁目１８番", "経度": 130.5272095, "緯度": 31.62044252 }, "geometry": { "type": "Point", "coordinates": [ 130.5272095, 31.62044252 ] } },
{ "type": "Feature", "properties": { "UNID": 269, "名称": "さそり座公園", "所在地": "伊敷台４丁目３７番", "経度": 130.5463806, "緯度": 31.63040542 }, "geometry": { "type": "Point", "coordinates": [ 130.5463806, 31.63040542 ] } },
{ "type": "Feature", "properties": { "UNID": 270, "名称": "しし座公園", "所在地": "伊敷台３丁目１８番", "経度": 130.5352514, "緯度": 31.62960337 }, "geometry": { "type": "Point", "coordinates": [ 130.5352514, 31.62960337 ] } },
{ "type": "Feature", "properties": { "UNID": 271, "名称": "千年団地第五公園", "所在地": "千年２丁目３０番", "経度": 130.5273626, "緯度": 31.6410804 }, "geometry": { "type": "Point", "coordinates": [ 130.5273626, 31.6410804 ] } },
{ "type": "Feature", "properties": { "UNID": 272, "名称": "千年団地第二公園", "所在地": "千年１丁目１９番", "経度": 130.5233933, "緯度": 31.63557556 }, "geometry": { "type": "Point", "coordinates": [ 130.5233933, 31.63557556 ] } },
{ "type": "Feature", "properties": { "UNID": 273, "名称": "千年団地第六公園", "所在地": "千年２丁目４０番", "経度": 130.5272665, "緯度": 31.64364324 }, "geometry": { "type": "Point", "coordinates": [ 130.5272665, 31.64364324 ] } },
{ "type": "Feature", "properties": { "UNID": 274, "名称": "千年団地中央公園", "所在地": "千年２丁目２番", "経度": 130.524257, "緯度": 31.6386854 }, "geometry": { "type": "Point", "coordinates": [ 130.524257, 31.6386854 ] } },
{ "type": "Feature", "properties": { "UNID": 275, "名称": "玉里台第一公園", "所在地": "伊敷台６丁目１０番", "経度": 130.542776, "緯度": 31.62703962 }, "geometry": { "type": "Point", "coordinates": [ 130.542776, 31.62703962 ] } },
{ "type": "Feature", "properties": { "UNID": 276, "名称": "てんびん座公園", "所在地": "伊敷台４丁目２２番", "経度": 130.5409479, "緯度": 31.63188526 }, "geometry": { "type": "Point", "coordinates": [ 130.5409479, 31.63188526 ] } },
{ "type": "Feature", "properties": { "UNID": 277, "名称": "花野団地第一公園", "所在地": "花野光ヶ丘１丁目２番", "経度": 130.5286721, "緯度": 31.64836895 }, "geometry": { "type": "Point", "coordinates": [ 130.5286721, 31.64836895 ] } },
{ "type": "Feature", "properties": { "UNID": 278, "名称": "花野団地第五公園", "所在地": "花野光ヶ丘２丁目４２番", "経度": 130.5234117, "緯度": 31.65035943 }, "geometry": { "type": "Point", "coordinates": [ 130.5234117, 31.65035943 ] } },
{ "type": "Feature", "properties": { "UNID": 279, "名称": "花野団地第三公園", "所在地": "花野光ヶ丘１丁目３８番", "経度": 130.528538, "緯度": 31.65419928 }, "geometry": { "type": "Point", "coordinates": [ 130.528538, 31.65419928 ] } },
{ "type": "Feature", "properties": { "UNID": 280, "名称": "花野団地第二公園", "所在地": "花野光ヶ丘１丁目２２番", "経度": 130.5305349, "緯度": 31.65172761 }, "geometry": { "type": "Point", "coordinates": [ 130.5305349, 31.65172761 ] } },
{ "type": "Feature", "properties": { "UNID": 281, "名称": "花野団地第四公園", "所在地": "花野光ヶ丘２丁目５６番", "経度": 130.5256333, "緯度": 31.65255031 }, "geometry": { "type": "Point", "coordinates": [ 130.52563330000001, 31.65255031 ] } },
{ "type": "Feature", "properties": { "UNID": 282, "名称": "花野団地第六公園", "所在地": "花野光ヶ丘２丁目１１番", "経度": 130.5247506, "緯度": 31.64809275 }, "geometry": { "type": "Point", "coordinates": [ 130.5247506, 31.64809275 ] } },
{ "type": "Feature", "properties": { "UNID": 283, "名称": "花野団地中央公園", "所在地": "花野光ヶ丘１丁目１８番", "経度": 130.5283142, "緯度": 31.65132159 }, "geometry": { "type": "Point", "coordinates": [ 130.528314200000011, 31.65132159 ] } },
{ "type": "Feature", "properties": { "UNID": 284, "名称": "花野団地光ヶ丘公園", "所在地": "花野光ヶ丘２丁目３２番", "経度": 130.5264193, "緯度": 31.65072652 }, "geometry": { "type": "Point", "coordinates": [ 130.526419299999986, 31.65072652 ] } },
{ "type": "Feature", "properties": { "UNID": 285, "名称": "日当平公園", "所在地": "下伊敷２丁目２１番", "経度": 130.5376206, "緯度": 31.61943289 }, "geometry": { "type": "Point", "coordinates": [ 130.5376206, 31.61943289 ] } },
{ "type": "Feature", "properties": { "UNID": 286, "名称": "武岡ニュータウン公園", "所在地": "武岡５丁目４９", "経度": 130.5073308, "緯度": 31.59956639 }, "geometry": { "type": "Point", "coordinates": [ 130.5073308, 31.59956639 ] } },
{ "type": "Feature", "properties": { "UNID": 287, "名称": "みずがめ座公園", "所在地": "伊敷３丁目８番", "経度": 130.5284193, "緯度": 31.62295141 }, "geometry": { "type": "Point", "coordinates": [ 130.5284193, 31.62295141 ] } },
{ "type": "Feature", "properties": { "UNID": 288, "名称": "明ヶ窪中央公園", "所在地": "伊敷台７丁目１８番", "経度": 130.5498025, "緯度": 31.6289375 }, "geometry": { "type": "Point", "coordinates": [ 130.5498025, 31.6289375 ] } },
{ "type": "Feature", "properties": { "UNID": 289, "名称": "帯迫北公園", "所在地": "吉野１丁目２７", "経度": 130.568003, "緯度": 31.64868162 }, "geometry": { "type": "Point", "coordinates": [ 130.568003, 31.64868162 ] } },
{ "type": "Feature", "properties": { "UNID": 290, "名称": "御召覧公園", "所在地": "吉野町３２２４番付近", "経度": 130.5724814, "緯度": 31.6417838 }, "geometry": { "type": "Point", "coordinates": [ 130.572481399999987, 31.6417838 ] } },
{ "type": "Feature", "properties": { "UNID": 291, "名称": "吉野公園", "所在地": "吉野町７９５５番", "経度": 130.5947853, "緯度": 31.63282738 }, "geometry": { "type": "Point", "coordinates": [ 130.594785300000012, 31.63282738 ] } },
{ "type": "Feature", "properties": { "UNID": 292, "名称": "クローバー公園", "所在地": "緑ヶ丘町３番", "経度": 130.5459615, "緯度": 31.65585532 }, "geometry": { "type": "Point", "coordinates": [ 130.5459615, 31.65585532 ] } },
{ "type": "Feature", "properties": { "UNID": 293, "名称": "下田公園", "所在地": "下田町７２５番１", "経度": 130.5625232, "緯度": 31.64801675 }, "geometry": { "type": "Point", "coordinates": [ 130.562523199999987, 31.64801675 ] } },
{ "type": "Feature", "properties": { "UNID": 294, "名称": "下花棚公園", "所在地": "川上町２２３８番付近", "経度": 130.564756, "緯度": 31.66836631 }, "geometry": { "type": "Point", "coordinates": [ 130.564756, 31.66836631 ] } },
{ "type": "Feature", "properties": { "UNID": 295, "名称": "大明公園", "所在地": "大明丘３丁目２８番", "経度": 130.5673228, "緯度": 31.63396167 }, "geometry": { "type": "Point", "coordinates": [ 130.5673228, 31.63396167 ] } },
{ "type": "Feature", "properties": { "UNID": 296, "名称": "つつじ公園", "所在地": "緑ヶ丘町５４番", "経度": 130.5416327, "緯度": 31.65859 }, "geometry": { "type": "Point", "coordinates": [ 130.5416327, 31.65859 ] } },
{ "type": "Feature", "properties": { "UNID": 297, "名称": "寺山ふれあい公園", "所在地": "吉野町１０８７７番１５外", "経度": 130.6012078, "緯度": 31.6576381 }, "geometry": { "type": "Point", "coordinates": [ 130.6012078, 31.6576381 ] } },
{ "type": "Feature", "properties": { "UNID": 298, "名称": "天神山公園", "所在地": "吉野町８０７番１８付近", "経度": 130.5617668, "緯度": 31.63428078 }, "geometry": { "type": "Point", "coordinates": [ 130.561766799999987, 31.63428078 ] } },
{ "type": "Feature", "properties": { "UNID": 299, "名称": "中ﾉ町みどり公園", "所在地": "吉野町８５５０番３付近", "経度": 130.5802856, "緯度": 31.63160923 }, "geometry": { "type": "Point", "coordinates": [ 130.5802856, 31.63160923 ] } },
{ "type": "Feature", "properties": { "UNID": 300, "名称": "中別府団地公園", "所在地": "吉野町５９５６－９５付近", "経度": 130.5894496, "緯度": 31.64560397 }, "geometry": { "type": "Point", "coordinates": [ 130.5894496, 31.64560397 ] } },
{ "type": "Feature", "properties": { "UNID": 301, "名称": "ばくっば公園", "所在地": "吉野２丁目２４", "経度": 130.5666037, "緯度": 31.65298432 }, "geometry": { "type": "Point", "coordinates": [ 130.5666037, 31.65298432 ] } },
{ "type": "Feature", "properties": { "UNID": 302, "名称": "れんげ公園", "所在地": "緑ヶ丘町４７番", "経度": 130.5447776, "緯度": 31.65714617 }, "geometry": { "type": "Point", "coordinates": [ 130.5447776, 31.65714617 ] } },
{ "type": "Feature", "properties": { "UNID": 303, "名称": "牟礼岡第１０公園", "所在地": "牟礼岡１丁目１２番", "経度": 130.5836355, "緯度": 31.67684034 }, "geometry": { "type": "Point", "coordinates": [ 130.583635500000014, 31.67684034 ] } },
{ "type": "Feature", "properties": { "UNID": 304, "名称": "牟礼岡第３公園", "所在地": "牟礼岡３丁目３０番", "経度": 130.5834118, "緯度": 31.66946078 }, "geometry": { "type": "Point", "coordinates": [ 130.5834118, 31.66946078 ] } },
{ "type": "Feature", "properties": { "UNID": 305, "名称": "牟礼岡第４公園", "所在地": "牟礼岡３丁目３１番", "経度": 130.5842207, "緯度": 31.67050773 }, "geometry": { "type": "Point", "coordinates": [ 130.5842207, 31.67050773 ] } },
{ "type": "Feature", "properties": { "UNID": 306, "名称": "牟礼岡第７公園", "所在地": "牟礼岡３丁目５番", "経度": 130.5841086, "緯度": 31.67300959 }, "geometry": { "type": "Point", "coordinates": [ 130.5841086, 31.67300959 ] } },
{ "type": "Feature", "properties": { "UNID": 307, "名称": "牟礼岡第８公園", "所在地": "牟礼岡２丁目２１番", "経度": 130.5857054, "緯度": 31.67553243 }, "geometry": { "type": "Point", "coordinates": [ 130.5857054, 31.67553243 ] } },
{ "type": "Feature", "properties": { "UNID": 308, "名称": "牟礼岡中央公園", "所在地": "牟礼岡１丁目２８番", "経度": 130.5818357, "緯度": 31.67418943 }, "geometry": { "type": "Point", "coordinates": [ 130.5818357, 31.67418943 ] } },
{ "type": "Feature", "properties": { "UNID": 309, "名称": "クロマツ親水公園", "所在地": "桜島藤野町１３３８番１", "経度": 130.6333881, "緯度": 31.6214968 }, "geometry": { "type": "Point", "coordinates": [ 130.6333881, 31.6214968 ] } },
{ "type": "Feature", "properties": { "UNID": 310, "名称": "古里(街区)公園", "所在地": "古里町１０７８番５２外", "経度": 130.6589553, "緯度": 31.55375828 }, "geometry": { "type": "Point", "coordinates": [ 130.6589553, 31.55375828 ] } },
{ "type": "Feature", "properties": { "UNID": 311, "名称": "湯之公園", "所在地": "東桜島町５１５番", "経度": 130.6349616, "緯度": 31.55473151 }, "geometry": { "type": "Point", "coordinates": [ 130.6349616, 31.55473151 ] } },
{ "type": "Feature", "properties": { "UNID": 312, "名称": "鹿児島市観光農業公園", "所在地": "喜入一倉町５８０９番地９７", "経度": 130.5106172, "緯度": 31.35303923 }, "geometry": { "type": "Point", "coordinates": [ 130.510617200000013, 31.35303923 ] } },
{ "type": "Feature", "properties": { "UNID": 313, "名称": "星和公園", "所在地": "喜入瀬々串町６０４番３３９の一部", "経度": 130.5100832, "緯度": 31.43225411 }, "geometry": { "type": "Point", "coordinates": [ 130.5100832, 31.43225411 ] } },
{ "type": "Feature", "properties": { "UNID": 314, "名称": "松陽台ふれあい公園", "所在地": "松陽台町５７０番２８６外", "経度": 130.4571038, "緯度": 31.59789211 }, "geometry": { "type": "Point", "coordinates": [ 130.4571038, 31.59789211 ] } },
{ "type": "Feature", "properties": { "UNID": 315, "名称": "松陽台憩いの公園", "所在地": "松陽台町１５０９番２１外", "経度": 130.4550099, "緯度": 31.59571024 }, "geometry": { "type": "Point", "coordinates": [ 130.4550099, 31.59571024 ] } },
{ "type": "Feature", "properties": { "UNID": 316, "名称": "松陽台出会いの公園", "所在地": "松陽台町３２番７", "経度": 130.4594812, "緯度": 31.59627051 }, "geometry": { "type": "Point", "coordinates": [ 130.4594812, 31.59627051 ] } },
{ "type": "Feature", "properties": { "UNID": 317, "名称": "郡山早馬公園", "所在地": "郡山町１５９４番の一部", "経度": 130.4703345, "緯度": 31.67478546 }, "geometry": { "type": "Point", "coordinates": [ 130.4703345, 31.67478546 ] } },
{ "type": "Feature", "properties": { "UNID": 318, "名称": "八重山公園", "所在地": "郡山町５５１７番地１", "経度": 130.4704923, "緯度": 31.72618725 }, "geometry": { "type": "Point", "coordinates": [ 130.470492299999989, 31.72618725 ] } },
{ "type": "Feature", "properties": { "UNID": 319, "名称": "城南小学校", "所在地": "城南町１－１", "経度": 130.5615552, "緯度": 31.5817466 }, "geometry": { "type": "Point", "coordinates": [ 130.561555199999987, 31.5817466 ] } },
{ "type": "Feature", "properties": { "UNID": 320, "名称": "中洲小学校", "所在地": "上之園町２８－１", "経度": 130.5441245, "緯度": 31.57966396 }, "geometry": { "type": "Point", "coordinates": [ 130.5441245, 31.57966396 ] } },
{ "type": "Feature", "properties": { "UNID": 321, "名称": "松原小学校", "所在地": "南林寺町２－１８", "経度": 130.5589484, "緯度": 31.5854369 }, "geometry": { "type": "Point", "coordinates": [ 130.5589484, 31.5854369 ] } },
{ "type": "Feature", "properties": { "UNID": 322, "名称": "名山小学校", "所在地": "山下町６－４３", "経度": 130.5554942, "緯度": 31.59629262 }, "geometry": { "type": "Point", "coordinates": [ 130.5554942, 31.59629262 ] } },
{ "type": "Feature", "properties": { "UNID": 323, "名称": "山下小学校", "所在地": "西千石町１５－５", "経度": 130.5505792, "緯度": 31.59055554 }, "geometry": { "type": "Point", "coordinates": [ 130.550579199999987, 31.59055554 ] } },
{ "type": "Feature", "properties": { "UNID": 324, "名称": "甲東中学校", "所在地": "樋之口町４－３８", "経度": 130.554305, "緯度": 31.58482044 }, "geometry": { "type": "Point", "coordinates": [ 130.554305, 31.58482044 ] } },
{ "type": "Feature", "properties": { "UNID": 325, "名称": "坂元小学校", "所在地": "玉里団地３丁目４５－１", "経度": 130.5491697, "緯度": 31.623119 }, "geometry": { "type": "Point", "coordinates": [ 130.5491697, 31.623119 ] } },
{ "type": "Feature", "properties": { "UNID": 326, "名称": "坂元台小学校", "所在地": "西坂元町５８－２", "経度": 130.5524618, "緯度": 31.61615846 }, "geometry": { "type": "Point", "coordinates": [ 130.5524618, 31.61615846 ] } },
{ "type": "Feature", "properties": { "UNID": 327, "名称": "清水小学校", "所在地": "清水町８－１５", "経度": 130.5667167, "緯度": 31.6080082 }, "geometry": { "type": "Point", "coordinates": [ 130.5667167, 31.6080082 ] } },
{ "type": "Feature", "properties": { "UNID": 328, "名称": "大龍小学校", "所在地": "大竜町１１－４４", "経度": 130.562947, "緯度": 31.60620227 }, "geometry": { "type": "Point", "coordinates": [ 130.562947, 31.60620227 ] } },
{ "type": "Feature", "properties": { "UNID": 329, "名称": "坂元中学校", "所在地": "玉里団地３丁目４５－２", "経度": 130.5479448, "緯度": 31.62326695 }, "geometry": { "type": "Point", "coordinates": [ 130.54794480000001, 31.62326695 ] } },
{ "type": "Feature", "properties": { "UNID": 330, "名称": "清水中学校", "所在地": "稲荷町３６－２９", "経度": 130.5661505, "緯度": 31.61205674 }, "geometry": { "type": "Point", "coordinates": [ 130.5661505, 31.61205674 ] } },
{ "type": "Feature", "properties": { "UNID": 331, "名称": "長田中学校", "所在地": "小川町３－１０", "経度": 130.5589426, "緯度": 31.60057262 }, "geometry": { "type": "Point", "coordinates": [ 130.5589426, 31.60057262 ] } },
{ "type": "Feature", "properties": { "UNID": 332, "名称": "鹿児島玉龍高校", "所在地": "池之上町２０－５７", "経度": 130.5614485, "緯度": 31.61052745 }, "geometry": { "type": "Point", "coordinates": [ 130.561448500000012, 31.61052745 ] } },
{ "type": "Feature", "properties": { "UNID": 333, "名称": "鹿児島商業高校", "所在地": "西坂元町５８－１", "経度": 130.5514929, "緯度": 31.61419365 }, "geometry": { "type": "Point", "coordinates": [ 130.5514929, 31.61419365 ] } },
{ "type": "Feature", "properties": { "UNID": 334, "名称": "荒田小学校", "所在地": "荒田１丁目３０－２７", "経度": 130.5483909, "緯度": 31.57551897 }, "geometry": { "type": "Point", "coordinates": [ 130.548390899999987, 31.57551897 ] } },
{ "type": "Feature", "properties": { "UNID": 335, "名称": "宇宿小学校", "所在地": "宇宿４丁目２１－７", "経度": 130.5362489, "緯度": 31.54547606 }, "geometry": { "type": "Point", "coordinates": [ 130.5362489, 31.54547606 ] } },
{ "type": "Feature", "properties": { "UNID": 336, "名称": "鴨池小学校", "所在地": "真砂本町５９－２８", "経度": 130.5525011, "緯度": 31.55395793 }, "geometry": { "type": "Point", "coordinates": [ 130.5525011, 31.55395793 ] } },
{ "type": "Feature", "properties": { "UNID": 337, "名称": "中郡小学校", "所在地": "郡元２丁目４－６", "経度": 130.5467382, "緯度": 31.56350244 }, "geometry": { "type": "Point", "coordinates": [ 130.5467382, 31.56350244 ] } },
{ "type": "Feature", "properties": { "UNID": 338, "名称": "西紫原小学校", "所在地": "紫原４丁目１６－４", "経度": 130.5325847, "緯度": 31.5556255 }, "geometry": { "type": "Point", "coordinates": [ 130.5325847, 31.5556255 ] } },
{ "type": "Feature", "properties": { "UNID": 339, "名称": "南小学校", "所在地": "東郡元町１３－２２", "経度": 130.5474485, "緯度": 31.55244371 }, "geometry": { "type": "Point", "coordinates": [ 130.5474485, 31.55244371 ] } },
{ "type": "Feature", "properties": { "UNID": 340, "名称": "紫原小学校", "所在地": "紫原２丁目３６－５０", "経度": 130.5371323, "緯度": 31.5587773 }, "geometry": { "type": "Point", "coordinates": [ 130.5371323, 31.5587773 ] } },
{ "type": "Feature", "properties": { "UNID": 341, "名称": "八幡小学校", "所在地": "下荒田３丁目２５－１", "経度": 130.55405, "緯度": 31.57052745 }, "geometry": { "type": "Point", "coordinates": [ 130.55405, 31.57052745 ] } },
{ "type": "Feature", "properties": { "UNID": 342, "名称": "鴨池中学校", "所在地": "真砂本町５８－５８", "経度": 130.553786, "緯度": 31.55330801 }, "geometry": { "type": "Point", "coordinates": [ 130.553786, 31.55330801 ] } },
{ "type": "Feature", "properties": { "UNID": 343, "名称": "甲南中学校", "所在地": "高麗町３６－３２", "経度": 130.5499167, "緯度": 31.57872672 }, "geometry": { "type": "Point", "coordinates": [ 130.549916700000011, 31.57872672 ] } },
{ "type": "Feature", "properties": { "UNID": 344, "名称": "天保山中学校", "所在地": "下荒田２丁目３１－１５", "経度": 130.5591583, "緯度": 31.57461638 }, "geometry": { "type": "Point", "coordinates": [ 130.5591583, 31.57461638 ] } },
{ "type": "Feature", "properties": { "UNID": 345, "名称": "西紫原中学校", "所在地": "西紫原町２６－１", "経度": 130.5279298, "緯度": 31.55812406 }, "geometry": { "type": "Point", "coordinates": [ 130.52792980000001, 31.55812406 ] } },
{ "type": "Feature", "properties": { "UNID": 346, "名称": "南中学校", "所在地": "東郡元町１３－３４", "経度": 130.5474144, "緯度": 31.55338867 }, "geometry": { "type": "Point", "coordinates": [ 130.5474144, 31.55338867 ] } },
{ "type": "Feature", "properties": { "UNID": 347, "名称": "紫原中学校", "所在地": "紫原６丁目３１－１９", "経度": 130.5293127, "緯度": 31.5639323 }, "geometry": { "type": "Point", "coordinates": [ 130.5293127, 31.5639323 ] } },
{ "type": "Feature", "properties": { "UNID": 348, "名称": "草牟田小学校", "所在地": "城山２丁目３－１", "経度": 130.5474632, "緯度": 31.60292183 }, "geometry": { "type": "Point", "coordinates": [ 130.54746320000001, 31.60292183 ] } },
{ "type": "Feature", "properties": { "UNID": 349, "名称": "西田小学校", "所在地": "薬師２丁目３１－１", "経度": 130.5357345, "緯度": 31.58949468 }, "geometry": { "type": "Point", "coordinates": [ 130.5357345, 31.58949468 ] } },
{ "type": "Feature", "properties": { "UNID": 350, "名称": "原良小学校", "所在地": "原良２丁目１－１", "経度": 130.5351639, "緯度": 31.59722986 }, "geometry": { "type": "Point", "coordinates": [ 130.535163899999986, 31.59722986 ] } },
{ "type": "Feature", "properties": { "UNID": 351, "名称": "明和小学校", "所在地": "明和２丁目１－１", "経度": 130.5222896, "緯度": 31.60151579 }, "geometry": { "type": "Point", "coordinates": [ 130.5222896, 31.60151579 ] } },
{ "type": "Feature", "properties": { "UNID": 352, "名称": "城西中学校", "所在地": "城西２丁目３－１２", "経度": 130.5397047, "緯度": 31.59588527 }, "geometry": { "type": "Point", "coordinates": [ 130.539704699999987, 31.59588527 ] } },
{ "type": "Feature", "properties": { "UNID": 353, "名称": "明和中学校", "所在地": "明和２丁目２－１", "経度": 130.5215216, "緯度": 31.6002558 }, "geometry": { "type": "Point", "coordinates": [ 130.5215216, 31.6002558 ] } },
{ "type": "Feature", "properties": { "UNID": 354, "名称": "鹿児島女子高校", "所在地": "玉里町２７－１", "経度": 130.5393679, "緯度": 31.61210927 }, "geometry": { "type": "Point", "coordinates": [ 130.5393679, 31.61210927 ] } },
{ "type": "Feature", "properties": { "UNID": 355, "名称": "向陽小学校", "所在地": "向陽１丁目１４番１号", "経度": 130.5159805, "緯度": 31.55852593 }, "geometry": { "type": "Point", "coordinates": [ 130.515980500000012, 31.55852593 ] } },
{ "type": "Feature", "properties": { "UNID": 356, "名称": "西陵小学校", "所在地": "西陵１丁目１１－１", "経度": 130.5158011, "緯度": 31.57932148 }, "geometry": { "type": "Point", "coordinates": [ 130.5158011, 31.57932148 ] } },
{ "type": "Feature", "properties": { "UNID": 357, "名称": "田上小学校", "所在地": "田上５丁目１２番１号", "経度": 130.5267139, "緯度": 31.57901335 }, "geometry": { "type": "Point", "coordinates": [ 130.5267139, 31.57901335 ] } },
{ "type": "Feature", "properties": { "UNID": 358, "名称": "武岡小学校", "所在地": "武岡２丁目３０－１", "経度": 130.5178398, "緯度": 31.59146338 }, "geometry": { "type": "Point", "coordinates": [ 130.5178398, 31.59146338 ] } },
{ "type": "Feature", "properties": { "UNID": 359, "名称": "武岡台小学校", "所在地": "武岡６丁目１－１", "経度": 130.5157255, "緯度": 31.59662718 }, "geometry": { "type": "Point", "coordinates": [ 130.5157255, 31.59662718 ] } },
{ "type": "Feature", "properties": { "UNID": 360, "名称": "武小学校", "所在地": "武１丁目３５－３１", "経度": 130.5382002, "緯度": 31.57703971 }, "geometry": { "type": "Point", "coordinates": [ 130.5382002, 31.57703971 ] } },
{ "type": "Feature", "properties": { "UNID": 361, "名称": "広木小学校", "所在地": "広木１丁目４－１", "経度": 130.5220019, "緯度": 31.56478102 }, "geometry": { "type": "Point", "coordinates": [ 130.5220019, 31.56478102 ] } },
{ "type": "Feature", "properties": { "UNID": 362, "名称": "西陵中学校", "所在地": "西陵５丁目１３－１", "経度": 130.5057251, "緯度": 31.58267994 }, "geometry": { "type": "Point", "coordinates": [ 130.5057251, 31.58267994 ] } },
{ "type": "Feature", "properties": { "UNID": 363, "名称": "武岡中学校", "所在地": "武岡５丁目５０－１", "経度": 130.5085875, "緯度": 31.60038431 }, "geometry": { "type": "Point", "coordinates": [ 130.5085875, 31.60038431 ] } },
{ "type": "Feature", "properties": { "UNID": 364, "名称": "武中学校", "所在地": "武３丁目４２－１", "経度": 130.5334836, "緯度": 31.58024186 }, "geometry": { "type": "Point", "coordinates": [ 130.533483600000011, 31.58024186 ] } },
{ "type": "Feature", "properties": { "UNID": 365, "名称": "皇徳寺小学校", "所在地": "皇徳寺台２丁目５０－１", "経度": 130.4926406, "緯度": 31.55645295 }, "geometry": { "type": "Point", "coordinates": [ 130.492640599999987, 31.55645295 ] } },
{ "type": "Feature", "properties": { "UNID": 366, "名称": "桜丘西小学校", "所在地": "桜ヶ丘２丁目３５", "経度": 130.5108654, "緯度": 31.55451266 }, "geometry": { "type": "Point", "coordinates": [ 130.5108654, 31.55451266 ] } },
{ "type": "Feature", "properties": { "UNID": 367, "名称": "桜丘東小学校", "所在地": "桜ヶ丘６丁目１３", "経度": 130.5222599, "緯度": 31.54825839 }, "geometry": { "type": "Point", "coordinates": [ 130.5222599, 31.54825839 ] } },
{ "type": "Feature", "properties": { "UNID": 368, "名称": "中山小学校", "所在地": "中山２丁目３０－３", "経度": 130.5038381, "緯度": 31.55024092 }, "geometry": { "type": "Point", "coordinates": [ 130.5038381, 31.55024092 ] } },
{ "type": "Feature", "properties": { "UNID": 369, "名称": "東谷山小学校", "所在地": "魚見町１２４－１", "経度": 130.5239672, "緯度": 31.54030444 }, "geometry": { "type": "Point", "coordinates": [ 130.523967199999987, 31.54030444 ] } },
{ "type": "Feature", "properties": { "UNID": 370, "名称": "星峯西小学校", "所在地": "星ヶ峯４丁目９－１", "経度": 130.4929476, "緯度": 31.57783146 }, "geometry": { "type": "Point", "coordinates": [ 130.4929476, 31.57783146 ] } },
{ "type": "Feature", "properties": { "UNID": 371, "名称": "星峯東小学校", "所在地": "星ヶ峯１丁目１７－１", "経度": 130.5032848, "緯度": 31.57291909 }, "geometry": { "type": "Point", "coordinates": [ 130.503284799999989, 31.57291909 ] } },
{ "type": "Feature", "properties": { "UNID": 372, "名称": "宮川小学校", "所在地": "皇徳寺台４丁目２６－１", "経度": 130.4841917, "緯度": 31.56305867 }, "geometry": { "type": "Point", "coordinates": [ 130.4841917, 31.56305867 ] } },
{ "type": "Feature", "properties": { "UNID": 373, "名称": "皇徳寺中学校", "所在地": "皇徳寺台３丁目３５－１", "経度": 130.4875991, "緯度": 31.56206259 }, "geometry": { "type": "Point", "coordinates": [ 130.487599100000011, 31.56206259 ] } },
{ "type": "Feature", "properties": { "UNID": 374, "名称": "桜丘中学校", "所在地": "桜ヶ丘２丁目３４", "経度": 130.5101547, "緯度": 31.55228702 }, "geometry": { "type": "Point", "coordinates": [ 130.510154699999987, 31.55228702 ] } },
{ "type": "Feature", "properties": { "UNID": 375, "名称": "谷山北中学校", "所在地": "山田町１６９０番", "経度": 130.5043517, "緯度": 31.56213203 }, "geometry": { "type": "Point", "coordinates": [ 130.5043517, 31.56213203 ] } },
{ "type": "Feature", "properties": { "UNID": 376, "名称": "東谷山中学校", "所在地": "魚見町１２０－２", "経度": 130.5264281, "緯度": 31.54150536 }, "geometry": { "type": "Point", "coordinates": [ 130.5264281, 31.54150536 ] } },
{ "type": "Feature", "properties": { "UNID": 377, "名称": "星峯中学校", "所在地": "星ヶ峯４丁目１０－１", "経度": 130.4915739, "緯度": 31.57854655 }, "geometry": { "type": "Point", "coordinates": [ 130.4915739, 31.57854655 ] } },
{ "type": "Feature", "properties": { "UNID": 378, "名称": "錦江台小学校", "所在地": "錦江台１丁目７０－１", "経度": 130.494062, "緯度": 31.50050291 }, "geometry": { "type": "Point", "coordinates": [ 130.494062, 31.50050291 ] } },
{ "type": "Feature", "properties": { "UNID": 379, "名称": "錫山小学校", "所在地": "下福元町９８５６番", "経度": 130.4535754, "緯度": 31.49678155 }, "geometry": { "type": "Point", "coordinates": [ 130.4535754, 31.49678155 ] } },
{ "type": "Feature", "properties": { "UNID": 380, "名称": "清和小学校", "所在地": "上福元町１２７７－１", "経度": 130.5105133, "緯度": 31.53517038 }, "geometry": { "type": "Point", "coordinates": [ 130.510513300000014, 31.53517038 ] } },
{ "type": "Feature", "properties": { "UNID": 381, "名称": "谷山小学校", "所在地": "谷山中央１丁目４９６２", "経度": 130.5174271, "緯度": 31.52185049 }, "geometry": { "type": "Point", "coordinates": [ 130.5174271, 31.52185049 ] } },
{ "type": "Feature", "properties": { "UNID": 382, "名称": "西谷山小学校", "所在地": "上福元町６４６４－１", "経度": 130.5011579, "緯度": 31.52320668 }, "geometry": { "type": "Point", "coordinates": [ 130.50115790000001, 31.52320668 ] } },
{ "type": "Feature", "properties": { "UNID": 383, "名称": "平川小学校", "所在地": "平川町３７９５番", "経度": 130.5144477, "緯度": 31.44939819 }, "geometry": { "type": "Point", "coordinates": [ 130.5144477, 31.44939819 ] } },
{ "type": "Feature", "properties": { "UNID": 384, "名称": "福平小学校", "所在地": "平川町８１９－３", "経度": 130.5015933, "緯度": 31.47758484 }, "geometry": { "type": "Point", "coordinates": [ 130.5015933, 31.47758484 ] } },
{ "type": "Feature", "properties": { "UNID": 385, "名称": "和田小学校", "所在地": "和田２丁目２－１０", "経度": 130.5117652, "緯度": 31.51006648 }, "geometry": { "type": "Point", "coordinates": [ 130.511765200000013, 31.51006648 ] } },
{ "type": "Feature", "properties": { "UNID": 386, "名称": "谷山中学校", "所在地": "上福元町５５００", "経度": 130.5107278, "緯度": 31.52337147 }, "geometry": { "type": "Point", "coordinates": [ 130.510727800000012, 31.52337147 ] } },
{ "type": "Feature", "properties": { "UNID": 387, "名称": "福平中学校", "所在地": "平川町６００４", "経度": 130.4975338, "緯度": 31.47787876 }, "geometry": { "type": "Point", "coordinates": [ 130.497533800000014, 31.47787876 ] } },
{ "type": "Feature", "properties": { "UNID": 388, "名称": "和田中学校", "所在地": "和田２丁目４４－３", "経度": 130.5090105, "緯度": 31.50673967 }, "geometry": { "type": "Point", "coordinates": [ 130.509010499999988, 31.50673967 ] } },
{ "type": "Feature", "properties": { "UNID": 389, "名称": "伊敷小学校", "所在地": "伊敷５丁目１９－１", "経度": 130.5275442, "緯度": 31.62690923 }, "geometry": { "type": "Point", "coordinates": [ 130.5275442, 31.62690923 ] } },
{ "type": "Feature", "properties": { "UNID": 390, "名称": "伊敷台小学校", "所在地": "伊敷台４丁目２０－１", "経度": 130.539075, "緯度": 31.6311583 }, "geometry": { "type": "Point", "coordinates": [ 130.539075, 31.6311583 ] } },
{ "type": "Feature", "properties": { "UNID": 391, "名称": "犬迫小学校", "所在地": "犬迫町５７４５", "経度": 130.4966696, "緯度": 31.62987282 }, "geometry": { "type": "Point", "coordinates": [ 130.4966696, 31.62987282 ] } },
{ "type": "Feature", "properties": { "UNID": 392, "名称": "小山田小学校", "所在地": "小山田町９３９８", "経度": 130.4894432, "緯度": 31.66365399 }, "geometry": { "type": "Point", "coordinates": [ 130.489443200000011, 31.66365399 ] } },
{ "type": "Feature", "properties": { "UNID": 393, "名称": "玉江小学校", "所在地": "下伊敷１丁目３５－１", "経度": 130.5336143, "緯度": 31.61303592 }, "geometry": { "type": "Point", "coordinates": [ 130.533614300000011, 31.61303592 ] } },
{ "type": "Feature", "properties": { "UNID": 394, "名称": "西伊敷小学校", "所在地": "西伊敷４丁目１２－１", "経度": 130.5359278, "緯度": 31.6399739 }, "geometry": { "type": "Point", "coordinates": [ 130.5359278, 31.6399739 ] } },
{ "type": "Feature", "properties": { "UNID": 395, "名称": "花野小学校", "所在地": "花野光ヶ丘１丁目１－１", "経度": 130.5293081, "緯度": 31.64681313 }, "geometry": { "type": "Point", "coordinates": [ 130.5293081, 31.64681313 ] } },
{ "type": "Feature", "properties": { "UNID": 396, "名称": "皆与志小学校", "所在地": "皆与志町４３０７", "経度": 130.5191752, "緯度": 31.67055208 }, "geometry": { "type": "Point", "coordinates": [ 130.5191752, 31.67055208 ] } },
{ "type": "Feature", "properties": { "UNID": 397, "名称": "伊敷台中学校", "所在地": "伊敷台１丁目３－１", "経度": 130.5299873, "緯度": 31.62148349 }, "geometry": { "type": "Point", "coordinates": [ 130.529987299999988, 31.62148349 ] } },
{ "type": "Feature", "properties": { "UNID": 398, "名称": "伊敷中学校", "所在地": "下伊敷２丁目１１－１", "経度": 130.5364883, "緯度": 31.60973108 }, "geometry": { "type": "Point", "coordinates": [ 130.5364883, 31.60973108 ] } },
{ "type": "Feature", "properties": { "UNID": 399, "名称": "河頭中学校", "所在地": "犬迫町１１６８番", "経度": 130.5127211, "緯度": 31.64247264 }, "geometry": { "type": "Point", "coordinates": [ 130.5127211, 31.64247264 ] } },
{ "type": "Feature", "properties": { "UNID": 400, "名称": "川上小学校", "所在地": "川上町３２２番", "経度": 130.5543513, "緯度": 31.65221456 }, "geometry": { "type": "Point", "coordinates": [ 130.5543513, 31.65221456 ] } },
{ "type": "Feature", "properties": { "UNID": 401, "名称": "大明丘小学校", "所在地": "大明ヶ丘１丁目１８－１", "経度": 130.565221, "緯度": 31.62895119 }, "geometry": { "type": "Point", "coordinates": [ 130.565221, 31.62895119 ] } },
{ "type": "Feature", "properties": { "UNID": 402, "名称": "吉野小学校", "所在地": "吉野町２４７２番", "経度": 130.5658675, "緯度": 31.6381394 }, "geometry": { "type": "Point", "coordinates": [ 130.5658675, 31.6381394 ] } },
{ "type": "Feature", "properties": { "UNID": 403, "名称": "吉野東小学校", "所在地": "吉野町５９６８－１", "経度": 130.5861775, "緯度": 31.647822 }, "geometry": { "type": "Point", "coordinates": [ 130.5861775, 31.647822 ] } },
{ "type": "Feature", "properties": { "UNID": 404, "名称": "緑丘中学校", "所在地": "緑ヶ丘町４６－１", "経度": 130.5439617, "緯度": 31.65568828 }, "geometry": { "type": "Point", "coordinates": [ 130.543961700000011, 31.65568828 ] } },
{ "type": "Feature", "properties": { "UNID": 405, "名称": "吉野中学校", "所在地": "吉野町３０７４番", "経度": 130.571169, "緯度": 31.6463936 }, "geometry": { "type": "Point", "coordinates": [ 130.571169, 31.6463936 ] } },
{ "type": "Feature", "properties": { "UNID": 406, "名称": "吉野東中学校", "所在地": "吉野町５００３", "経度": 130.5847025, "緯度": 31.64828903 }, "geometry": { "type": "Point", "coordinates": [ 130.5847025, 31.64828903 ] } },
{ "type": "Feature", "properties": { "UNID": 407, "名称": "本城小学校", "所在地": "本城町１７０５", "経度": 130.5587542, "緯度": 31.71114084 }, "geometry": { "type": "Point", "coordinates": [ 130.55875420000001, 31.71114084 ] } },
{ "type": "Feature", "properties": { "UNID": 408, "名称": "本名小学校", "所在地": "本名町３５７９", "経度": 130.5453016, "緯度": 31.70045426 }, "geometry": { "type": "Point", "coordinates": [ 130.545301599999988, 31.70045426 ] } },
{ "type": "Feature", "properties": { "UNID": 409, "名称": "宮小学校", "所在地": "宮之浦町１９５３", "経度": 130.5650674, "緯度": 31.67640174 }, "geometry": { "type": "Point", "coordinates": [ 130.5650674, 31.67640174 ] } },
{ "type": "Feature", "properties": { "UNID": 410, "名称": "牟礼岡小学校", "所在地": "牟礼岡１丁目１－１", "経度": 130.5851233, "緯度": 31.67921922 }, "geometry": { "type": "Point", "coordinates": [ 130.5851233, 31.67921922 ] } },
{ "type": "Feature", "properties": { "UNID": 411, "名称": "吉田小学校", "所在地": "西佐多町１８５－４", "経度": 130.5682364, "緯度": 31.73665371 }, "geometry": { "type": "Point", "coordinates": [ 130.568236399999989, 31.73665371 ] } },
{ "type": "Feature", "properties": { "UNID": 412, "名称": "吉田北中学校", "所在地": "西佐多町２６９", "経度": 130.5679544, "緯度": 31.73773359 }, "geometry": { "type": "Point", "coordinates": [ 130.5679544, 31.73773359 ] } },
{ "type": "Feature", "properties": { "UNID": 413, "名称": "吉田南中学校", "所在地": "本名町５６５", "経度": 130.547872, "緯度": 31.68910002 }, "geometry": { "type": "Point", "coordinates": [ 130.547872, 31.68910002 ] } },
{ "type": "Feature", "properties": { "UNID": 414, "名称": "桜洲小学校", "所在地": "桜島小池町５５", "経度": 130.6081846, "緯度": 31.59734002 }, "geometry": { "type": "Point", "coordinates": [ 130.608184599999987, 31.59734002 ] } },
{ "type": "Feature", "properties": { "UNID": 415, "名称": "鹿児島市改新交流センター（旧改新小学校グラウンド）", "所在地": "古里町２６２", "経度": 130.6497046, "緯度": 31.55079385 }, "geometry": { "type": "Point", "coordinates": [ 130.6497046, 31.55079385 ] } },
{ "type": "Feature", "properties": { "UNID": 416, "名称": "黒神小学校", "所在地": "黒神町２５６１", "経度": 130.708123, "緯度": 31.59237028 }, "geometry": { "type": "Point", "coordinates": [ 130.708123, 31.59237028 ] } },
{ "type": "Feature", "properties": { "UNID": 417, "名称": "桜峰小学校", "所在地": "桜島松浦町３５５", "経度": 130.643732, "緯度": 31.62057704 }, "geometry": { "type": "Point", "coordinates": [ 130.643732, 31.62057704 ] } },
{ "type": "Feature", "properties": { "UNID": 418, "名称": "高免小学校", "所在地": "高免町３２", "経度": 130.6835531, "緯度": 31.62126181 }, "geometry": { "type": "Point", "coordinates": [ 130.683553100000012, 31.62126181 ] } },
{ "type": "Feature", "properties": { "UNID": 419, "名称": "東桜島小学校", "所在地": "東桜島町１７", "経度": 130.630259, "緯度": 31.55710129 }, "geometry": { "type": "Point", "coordinates": [ 130.630259, 31.55710129 ] } },
{ "type": "Feature", "properties": { "UNID": 420, "名称": "黒神中学校", "所在地": "黒神町６４７", "経度": 130.7061013, "緯度": 31.58428501 }, "geometry": { "type": "Point", "coordinates": [ 130.7061013, 31.58428501 ] } },
{ "type": "Feature", "properties": { "UNID": 421, "名称": "桜島中学校", "所在地": "桜島藤野町１３４２", "経度": 130.6325642, "緯度": 31.62093081 }, "geometry": { "type": "Point", "coordinates": [ 130.6325642, 31.62093081 ] } },
{ "type": "Feature", "properties": { "UNID": 422, "名称": "東桜島中学校", "所在地": "東桜島町８１０", "経度": 130.6366977, "緯度": 31.55268802 }, "geometry": { "type": "Point", "coordinates": [ 130.636697700000013, 31.55268802 ] } },
{ "type": "Feature", "properties": { "UNID": 423, "名称": "生見小学校", "所在地": "喜入生見町１３６５", "経度": 130.5709564, "緯度": 31.31174845 }, "geometry": { "type": "Point", "coordinates": [ 130.5709564, 31.31174845 ] } },
{ "type": "Feature", "properties": { "UNID": 424, "名称": "一倉小学校", "所在地": "喜入一倉町５３３５", "経度": 130.5224757, "緯度": 31.35102859 }, "geometry": { "type": "Point", "coordinates": [ 130.5224757, 31.35102859 ] } },
{ "type": "Feature", "properties": { "UNID": 425, "名称": "喜入小学校", "所在地": "喜入町６９９３", "経度": 130.5412625, "緯度": 31.37466777 }, "geometry": { "type": "Point", "coordinates": [ 130.541262499999988, 31.37466777 ] } },
{ "type": "Feature", "properties": { "UNID": 426, "名称": "瀬々串小学校", "所在地": "喜入瀬々串町３１０３－２", "経度": 130.5203054, "緯度": 31.42223268 }, "geometry": { "type": "Point", "coordinates": [ 130.520305400000012, 31.42223268 ] } },
{ "type": "Feature", "properties": { "UNID": 427, "名称": "中名小学校", "所在地": "喜入中名町１０７９", "経度": 130.5332043, "緯度": 31.39105589 }, "geometry": { "type": "Point", "coordinates": [ 130.5332043, 31.39105589 ] } },
{ "type": "Feature", "properties": { "UNID": 428, "名称": "前之浜小学校", "所在地": "喜入前之浜町７０３６", "経度": 130.55135, "緯度": 31.34331098 }, "geometry": { "type": "Point", "coordinates": [ 130.55135, 31.34331098 ] } },
{ "type": "Feature", "properties": { "UNID": 429, "名称": "喜入中学校", "所在地": "喜入町７１４３", "経度": 130.536425, "緯度": 31.37103821 }, "geometry": { "type": "Point", "coordinates": [ 130.536425, 31.37103821 ] } },
{ "type": "Feature", "properties": { "UNID": 430, "名称": "石谷小学校", "所在地": "石谷町１３６０", "経度": 130.4598507, "緯度": 31.61224102 }, "geometry": { "type": "Point", "coordinates": [ 130.4598507, 31.61224102 ] } },
{ "type": "Feature", "properties": { "UNID": 431, "名称": "春山小学校", "所在地": "春山町１８２４－２", "経度": 130.4569208, "緯度": 31.58352885 }, "geometry": { "type": "Point", "coordinates": [ 130.4569208, 31.58352885 ] } },
{ "type": "Feature", "properties": { "UNID": 432, "名称": "東昌小学校", "所在地": "直木町４３０７－１", "経度": 130.4167658, "緯度": 31.58418184 }, "geometry": { "type": "Point", "coordinates": [ 130.4167658, 31.58418184 ] } },
{ "type": "Feature", "properties": { "UNID": 433, "名称": "松元小学校", "所在地": "上谷口町９５６－１", "経度": 130.4351202, "緯度": 31.60611989 }, "geometry": { "type": "Point", "coordinates": [ 130.4351202, 31.60611989 ] } },
{ "type": "Feature", "properties": { "UNID": 434, "名称": "松元中学校", "所在地": "上谷口町２９９４－２", "経度": 130.4348357, "緯度": 31.601199 }, "geometry": { "type": "Point", "coordinates": [ 130.4348357, 31.601199 ] } },
{ "type": "Feature", "properties": { "UNID": 435, "名称": "郡山小学校", "所在地": "郡山町２０８０", "経度": 130.468262, "緯度": 31.68070989 }, "geometry": { "type": "Point", "coordinates": [ 130.468262, 31.68070989 ] } },
{ "type": "Feature", "properties": { "UNID": 436, "名称": "南方小学校", "所在地": "川田町１４１５", "経度": 130.5054334, "緯度": 31.67777902 }, "geometry": { "type": "Point", "coordinates": [ 130.505433399999987, 31.67777902 ] } },
{ "type": "Feature", "properties": { "UNID": 437, "名称": "花尾小学校", "所在地": "花尾町１７０", "経度": 130.4928955, "緯度": 31.70471578 }, "geometry": { "type": "Point", "coordinates": [ 130.4928955, 31.70471578 ] } },
{ "type": "Feature", "properties": { "UNID": 438, "名称": "郡山中学校", "所在地": "郡山町１５００", "経度": 130.4704191, "緯度": 31.67933506 }, "geometry": { "type": "Point", "coordinates": [ 130.470419099999987, 31.67933506 ] } },
{ "type": "Feature", "properties": { "UNID": 439, "名称": "小山田農村広場", "所在地": null, "経度": 130.4900418, "緯度": 31.65590193 }, "geometry": { "type": "Point", "coordinates": [ 130.4900418, 31.65590193 ] } },
{ "type": "Feature", "properties": { "UNID": 440, "名称": "皆与志農村広場", "所在地": null, "経度": 130.5208999, "緯度": 31.67625044 }, "geometry": { "type": "Point", "coordinates": [ 130.520899899999989, 31.67625044 ] } },
{ "type": "Feature", "properties": { "UNID": 441, "名称": "都市農村交流センターお茶の里", "所在地": null, "経度": 130.4564564, "緯度": 31.58000492 }, "geometry": { "type": "Point", "coordinates": [ 130.4564564, 31.58000492 ] } },
{ "type": "Feature", "properties": { "UNID": 442, "名称": "入佐農村広場", "所在地": null, "経度": 130.410375, "緯度": 31.59098723 }, "geometry": { "type": "Point", "coordinates": [ 130.410375, 31.59098723 ] } },
{ "type": "Feature", "properties": { "UNID": 443, "名称": "直木農村広場", "所在地": null, "経度": 130.4267141, "緯度": 31.58294996 }, "geometry": { "type": "Point", "coordinates": [ 130.4267141, 31.58294996 ] } }
]
}
